stop_id,stop_name,stop_lat,stop_lon,wheelchair_boarding,stop_url,location_type,parent_station
30029,FARABİ DEVLET HASTANESİ ACİL GİRİŞİ,40.7716437,29.4054842,0,,0,
60804,EMLAK KONUT 1 YOLU 1,40.8231207,29.4712352,0,,0,
41296,DİLOVASI DEVLET HASTANESİ,40.7881323,29.5567849,0,,0,
80288,DÜNYA BANKASI 11,40.7915854,29.9468486,0,,0,
81174,KAPTANLAR SOKAK,40.7671919,29.9542044,0,,0,
40354,HAYAL SOKAK,40.7809074,29.8076682,0,,0,
90621,KIŞLA CADDESİ,40.691634,30.0366546,0,,0,
10488,AHMET YESEVİ CADDESİ 3,40.7064902,29.9521525,0,,0,
20016,PİR SULTAN CADDESİ,40.8259902,29.3942611,0,,0,
81066,ORHANİYE 3,40.855848,30.065076,0,,0,
98182,YUKARI HEREKE SAPAĞI,40.7859937,29.6207054,0,,0,
11753,ADA SOKAK,40.7495728,29.8013391,0,,0,
90636,ELMACIK ÇEŞME,40.8484234,29.6915464,0,,0,
98350,SARUHAN SOKAK 2,40.7714124,29.7916538,0,,0,
41419,İsmet paşa caddesi,40.7036054,29.8520678,0,,0,
80759,SOYKAN SOKAK 2,40.78815,29.958853,0,,0,
80057,ZİNCİRLİKUYU CAMİ,40.7716551,29.9493929,0,,0,
90212,PİRCELER YOLU,40.8971388,30.0860846,0,,0,
42162,BAŞİSKELE SAHİL SOKAK,40.726402,29.940622,0,,0,
20254,HÜSEYİN DEMİR CADDESİ,40.8589348,29.3818219,0,,0,
10479,HAVUZLUBAHÇE MAHALLESİ,40.6757996,29.8917545,0,,0,
41507,FETİH CADDESİ 1,40.7577516,29.7835537,0,,0,
11032,RÜZGARLI SOKAK,40.7671714,29.8018782,0,,0,
96276,GAZOZ,40.7522403,30.0294904,0,,0,
42300,KARAKÖPRÜ PAZAR,40.703159,29.852421,0,,0,
90595,YAŞAR SOKAK,40.7866277,29.9368508,0,,0,
81165,HALK CADDESİ,40.7965355,29.9447072,0,,0,
80085,KARADAVUTLU SAPAĞI,40.890292,30.2314036,0,,0,
80366,KULOĞLU,40.8445683,30.0635567,0,,0,
42264,DEPREMZDE KONUTLARI SOKAK,40.77234,29.867548,0,,0,
81131,ORMANKÖY 1,40.80274,29.87193,0,,0,
10257,MEHMET AKİF CADDESİ 1,40.7172805,29.9710532,0,,0,
10410,MEHMET AKİF CADDESİ,40.7173085,29.9711205,0,,0,
40356,LOJMAN SOKAK 1,40.7625509,29.8114783,0,,0,
41968,HASAT SOKAK 1,40.7852626,29.3874919,0,,0,
11373,AMBARCI GİRİŞİ,40.889793,30.193431,0,,0,
41322,KIRAHMETOĞLU IŞIKLAR,40.68801,29.58034,0,,0,
90584,KAYNARCA SAPAĞI,41.0523414,30.1899712,0,,0,
30223,KAVAKLI SOKAK 1,40.7837916,29.3738395,0,,0,
20134,ÇAĞDAŞKENT MERKEZ 1,40.8374119,29.3937174,0,,0,
11196,HEREKE LİMAN YOLU 1,40.77484,29.591669,0,,0,
60422,KÖRFEZ CADDESİ,40.791325,29.432983,0,,0,
40024,MÜJDAT SOKAK 1,40.7725649,29.8232886,0,,0,
30148,YUSUF SAVAŞ İLKOKULU 2,40.7867521,29.3480436,0,,0,
80811,BAĞLICA ORTAKÖY,40.905082,30.2045002,0,,0,
20125,ÇAĞDAŞKENT MEYDAN,40.8380966,29.392626,0,,0,
90069,KARASAKALLAR,41.039885,30.117374,0,,0,
30047,OSMAN HAMDİ BEY CADDESİ,40.7818279,29.4128286,0,,0,
20263,TURGUT SOKAK,40.8475764,29.381261,0,,0,
20288,AYÇA SOKAK 1,40.8505256,29.3830793,0,,0,
41130,ÇENESUYU MİLLET BAHÇESİ 1,40.761789,29.853169,0,,0,
60368,2417. SOKAK,40.824967,29.4169436,0,,0,
30082,DARICA MERKEZ,40.7595789,29.3866618,0,,0,
90470,ŞEREFSUNGUR AYDINLIK 2,40.976093,30.027735,0,,0,
90622,KIŞLA CADDESİ 1,40.6916531,30.0365859,0,,0,
90626,ŞEHİT SÜLEYMAN SOKAK,40.7669322,29.8018889,0,,0,
96037,İZMİT CADDESİ 1,40.7096842,30.020286,0,,0,
90624,ABDÜLHAMİT HAN CADDESİ 4,40.7666685,29.8010469,0,,0,
90509,BOŞNAKLAR FIRIN,40.9062342,30.1119908,0,,0,
41660,ESENKAYA SOKAK,40.8516401,29.4046456,0,,0,
81063,ARAPLIK İHASANİYE,40.866649,30.096995,0,,0,
80230,KOÇAL SOKAK,40.7740265,29.9117206,0,,0,
60294,AKSE SAPAĞI 1,40.80726,29.4317881,0,,0,
81208,KÖRFEZKENT,40.7706848,29.8049475,0,,0,
60007,BALLIKAYALAR CADDESİ,40.824657,29.5156956,0,,0,
80086,BUDAKLAR 3,40.8809259,30.2005502,0,,0,
99083,ULAŞLI İSKELE,40.7062155,29.6923134,0,,0,
96085,CENGİZ TOPEL HAVAALANI 1,40.73976,30.09732,0,,0,
11124,CENGİZ TOPEL HAVAALANI 2,40.739516,30.097204,0,,0,
96175,METRO AVM,40.757378,29.99418,0,,0,
80777,GEDİKLİ SAPAĞI,40.793812,30.102566,0,,0,
41531,BURAK SOKAK 1,40.770351,29.89476,0,,0,
99023,FARABİ CADDESİ,40.7816203,29.5428467,0,,0,
96751,ESKİ DEMİRYOLU CADDESİ 1,40.7494532,30.0219595,0,,0,
60675,HASTANE YOLU,40.8103274,29.3670918,0,,0,
90063,CİCİLİ,41.045464,30.136053,0,,0,
12106,GAZİ ERDOĞAN GÜRKAN CADDESİ,40.76748,29.950626,0,,0,
98160,KİRAZLIYALI  ÜST GEÇIT,40.777178,29.71084,0,,0,
40363,ARDAHAN SOKAK 1,40.767691,29.8306345,0,,0,
10490,ALSANCAK CADDESİ,40.7341064,29.9885757,0,,0,
80011,ORHANİYE ÇIKIŞ,40.8578197,30.0638671,0,,0,
10000,ÇINARLI KENT 1,40.7706983,29.8366713,0,,0,
40010,ERGUVAN SOKAK 1,40.77241,29.83475,0,,0,
40011,ERGUVAN SOKAK,40.772482,29.834975,0,,0,
90632,İSHAKCILAR İLKOKULU,40.9051596,29.8456235,0,,0,
96197,SEMAVER SOKAK 1,40.7502409,30.0222991,0,,0,
70447,ESKİ İLKOKUL,40.703613,29.795456,0,,0,
80098,ZÜLBİYE SOKAK 1,40.767352,29.8830463,0,,0,
96050,ARSLANBEY KAMPÜS 2,40.7050077,30.0257587,0,,0,
11138,SİPAHİLER MERKEZ MEVKİİ,40.856024,29.781701,0,,0,
40153,ESENTEPE CADDESİ 1,40.763099,29.836888,0,,0,
80709,VATAN CADDESİ 1,40.7707737,30.0162855,0,,0,
99032,YALOVA 2,40.658955,29.278975,0,,0,
90536,KANDIRA DEVLET HASTANESİ 1,41.06408,30.1332718,0,,0,
20317,GEBZE OTOGAR 2,40.7951573,29.4584938,0,,0,
96506,PLASTİK FABRİKASI 1,40.7292686,30.0568676,0,,0,
11444,HARBİYE CADDESİ,40.720055,30.148656,0,,0,
10380,YUVACIK GARAJ 1,40.690826,29.963074,0,,0,
11478,KÜTÜKÇÜLER 1,41.014888,30.171709,0,,0,
30294,ENSAR CAMİ,40.7850508,29.3769196,0,,0,
80095,KULFALLI CAMİ,40.7940003,29.8939759,0,,0,
20032,ABDULKADİR GEYLANİ CAMİ 1,40.819176,29.393116,0,,0,
40154,SAKARYA SOKAK 1,40.76465,29.836533,0,,0,
40280,ESENTEPE CADDESİ,40.7631,29.836792,0,,0,
11257,OMURCALI MEVKİİ 1,40.933795,30.260733,0,,0,
41370,TEMİZ SOKAK 1,40.7875157,29.5719625,0,,0,
80303,KELEŞ SOKAK 1,40.7735837,29.9977369,0,,0,
10116,ALTINKENT CAMİ,40.6972585,29.9457137,0,,0,
98235,ÇEŞME 20,40.7995224,29.6468371,0,,0,
70115,GÖLCÜK DEVLET HASTANESİ,40.705836,29.839025,0,,0,
98403,ŞEMSETTİN MERKEZ MEVKİİ 3,40.869933,29.741372,0,,0,
96513,SARIMEŞE MERKEZ CAMİ,40.7315096,30.0458648,0,,0,
41903,KORNİŞ CADDESİ 8,40.7717852,29.9326506,0,,0,
30010,BARIŞ ORTAOKULU,40.7810629,29.41425,0,,0,
96178,PİRELLİ GİRİŞ,40.756506,30.000264,0,,0,
80028,ALTINCIOĞLU CADDESİ,40.784268,29.977696,0,,0,
41747,GÜMÜŞHANELİLER 1,40.8117649,29.4665544,0,,0,
96177,FABRİKA,40.756874,29.997802,0,,0,
90346,AŞAĞI KURTYERİ SOKAK 1,41.124512,30.240238,0,,0,
98414,HİMMETLİ ORUÇLAR 1,40.8745344,29.8328156,0,,0,
98216,HEREKE RADAR CADDESİ 2,40.784682,29.6335506,0,,0,
80082,YENİ MAHALLE MUHTARLIĞI,40.7640968,29.8830846,0,,0,
96638,TEPETARLA ÜÇYOL 2,40.727025,30.081488,0,,0,
11100,DÜĞMECİLER SAPAĞI 1,40.9094565,30.2242866,0,,0,
80856,SEKBANLI MERKEZ,40.813574,29.951681,0,,0,
80328,KORNİŞ CADDESİ 3,40.771988,29.926755,0,,0,
80323,KORNİŞ CADDESİ 5,40.771058,29.929597,0,,0,
81043,SEPETÇİLER SAPAĞI 1,40.799479,29.982816,0,,0,
81051,KULMAHMUT YUKARI HORZUM 1,40.911117,29.975923,0,,0,
90628,YENİYOL SOKAK 1,40.7789878,29.7896069,0,,0,
90627,YENİYOL SOKAK,40.7789116,29.7897782,0,,0,
96574,SEKA KAMP SAPAĞI,40.7304797,30.1563856,0,,0,
11208,ARIZLI MERKEZ MEZARLIĞI 1,40.7814653,29.8980528,0,,0,
10990,ARIZLI MERKEZ MEZARLIĞI,40.7812468,29.8978887,0,,0,
81176,KAYMAZ SOKAK,40.7709103,29.9280347,0,,0,
81178,KAYMAZ SOKAK 1,40.7716979,29.9304899,0,,0,
11315,PALMİYE SOKAK,40.769844,29.918901,0,,0,
42249,ELMA TEPE CADDESİ 1,40.7834241,29.9943119,0,,0,
96052,ARSLANBEY KAMPÜS 3,40.7049802,30.0260537,0,,0,
40016,OĞUZ KAĞAN 1,40.7751568,29.8264401,0,,0,
10437,YENİKÖY ATAKENT 6/1,40.707163,29.891041,0,,0,
80207,SEMERKENT CADDESİ,40.7736101,30.0113756,0,,0,
70130,AK SOKAK,40.7116828,29.7866111,0,,0,
42272,İBRİKDERE SİTELER 1,40.7388386,30.1349714,0,,0,
96109,YEŞİL TÜRBE 2,40.7328777,30.1550808,0,,0,
41374,FINDIK SOKAK,40.7889111,29.5682355,0,,0,
90010,BELEDİYE EVLERİ,41.074482,30.135946,0,,0,
10459,ÇINARLI KENT 2,40.77065,29.8357986,0,,0,
70428,SİVRİTEPE TOKİ 2,40.694617,29.8254771,0,,0,
41324,DOĞA SOKAK,40.7786085,29.5749475,0,,0,
11087,AKÇAKESE 4,40.9124807,30.0878828,0,,0,
30246,DARICA HAYVANAT BAHÇESİ 1,40.7853837,29.3707843,0,,0,
94184,KARAMÜRSEL KENTKONUT,40.683084,29.603327,0,,0,
10377,YUVACIK TARIM MÜDÜRLÜĞÜ 2,40.688046,29.967362,0,,0,
90058,KADI DEĞİRMENİ SOKAK 1,41.072342,30.15533,0,,0,
11221,ÜĞÜMCE SAPAĞI 1,40.936328,30.037265,0,,0,
11061,ŞİRİNKÖY DEPOLAMA ALANI,40.7013292,29.8189142,0,,0,
10484,HAYAT İLKOKULU,40.6949369,29.896611,0,,0,
96108,YEŞİL TÜRBE 1,40.7327483,30.1550208,0,,0,
96459,KARTEPE HİPODROM 1,40.7451514,30.0258386,0,,0,
10436,YENİKÖY ATAKENT 5 /1,40.7055125,29.8898848,0,,0,
30184,FISTIK AĞACI SOKAK,40.7927062,29.3649427,0,,0,
80551,ÜÇKÖYLER DEPOLAMA ALANI 2,40.824366,30.201723,0,,0,
80639,KADIBAYIRI CAMİ,40.7675854,29.9162964,0,,0,
80061,KANLIBAĞ,40.7699506,29.9461823,0,,0,
80263,İZMİT KENT 3. ETAP 1,40.7825013,29.9440625,0,,0,
96057,YILDIRIM SOKAK,40.7538436,30.0105686,0,,0,
10321,YUVACIK SAPAĞI 1,40.7230431,29.9503592,0,,0,
98267,BURÇ SOKAK,40.7699363,29.7532379,0,,0,
41417,Karaköprü pazar yeri 1,40.7033148,29.8536398,0,,0,
98316,ÜRKÜTLÜ MEVKİİ,40.940236,29.796604,0,,0,
10397,AYDINKENT MUHTARLIĞI 1,40.707723,29.948157,0,,0,
10742,DÜĞMECİLER SAPAĞI,40.90949,30.224638,0,,0,
40155,SAKARYA SOKAK,40.764651,29.83668,0,,0,
90348,KURTYERİ KÖYÜ MEZARLIĞI,41.12259,30.234643,0,,0,
96330,ÇINAR CADDESİ,40.6986483,30.1303394,0,,0,
60692,ŞİŞE CAM YOLU 2,40.8045869,29.3669765,0,,0,
98391,OSMANLI MERKEZ 1,40.90913,29.78801,0,,0,
42083,SEDİR ÇOCUK PARKI 1,40.7897,29.42908,0,,0,
81057,BAĞLICA 4,40.90929,30.19591,0,,0,
10201,YUMRUKENT 1,40.6976935,29.975284,0,,0,
60224,HÜKÜMET CADDESİ,40.8013532,29.4576409,0,,0,
40067,YENİKENT MERKEZ,40.7711247,29.8106396,0,,0,
11215,FULACIK ÇIKIŞ 1,40.5633931,29.6024009,0,,0,
40115,DERİNCE ANADOLU LİSESİ,40.75638,29.824474,0,,0,
96435,KULLAR ORTAOKULU,40.7221237,30.000145,0,,0,
40119,DERİNCE İLÇE EMNİYET MÜDÜRLÜĞÜ,40.7571184,29.8087842,0,,0,
81354,YENİKÖY DEPOLAMA ALANI,40.6765473,29.8962693,0,,0,
42146,KUBİLAY ORTAOKULU 1,40.733469,30.132748,0,,0,
80351,KURUÇEŞME IŞIKLAR,40.764091,29.875057,0,,0,
90637,AHLAT CADDESİ,40.6973998,30.0393078,0,,0,
98236,ÇEŞME 19,40.7993824,29.6464924,0,,0,
98382,TÜPRAŞ SOSYAL TESİSLERİ,40.7572093,29.7859007,0,,0,
41801,GESİ BAĞLARI SOSYAL TESİSİ,40.770996,29.354862,0,,0,
10438,YENİKÖY ATAKENT 7/1,40.707089,29.889277,0,,0,
98192,ŞİRİNYALI ÜÇ EVLER 2,40.7787507,29.6679833,0,,0,
80541,KARAABDÜLBAKİ ÇIKIŞ,40.799259,30.158179,0,,0,
40349,PAŞA CADDESİ 3,40.766844,29.959518,0,,0,
11088,TERZİLER SAPAĞI 2,40.9039791,30.098373,0,,0,
80449,YEŞİLOVA MERKEZ,40.787012,29.9716,0,,0,
99034,SABİHA GÖKÇEN HAVAALANI 1,40.9089963,29.3155332,0,,0,
94042,İNÖNÜ CADDESİ 2,40.693085,29.612975,0,,0,
42270,SULTAN BEYAZIT CADDESİ 4,40.736676,30.151276,0,,0,
96114,NARLIÇEŞME 1,40.737515,30.152318,0,,0,
30179,YUSUF SAVAŞ İLKOKULU 1,40.7869019,29.3480406,0,,0,
90088,BEŞKEŞ,40.972944,30.10587,0,,0,
90087,BEŞKEŞ 1,40.973086,30.105988,0,,0,
90519,KURTYERİ KÖYÜ MEZARLIĞI 1,41.122566,30.234774,0,,0,
70463,FORD KONUTLARI,40.70834,29.820211,0,,0,
80160,MÜRSEL PAŞA CADDESİ 2,40.767532,29.903308,0,,0,
70423,KONCA RAMPASI,40.708214,29.719542,0,,0,
98116,PETKİM ALT KAPI 2,40.770761,29.745042,0,,0,
81008,MANDIRA YOLU,40.8462976,30.0395956,0,,0,
11062,İSHAKÇILAR DEPOLAMA ALANI,40.904809,29.851693,0,,0,
41112,SEKA KAMP DERE 1,40.717266,30.138933,0,,0,
11237,DEMOKRASİ CADDESİ 5,40.7414614,30.0195731,0,,0,
30053,İNCİRLİK SOKAK,40.7790764,29.4120104,0,,0,
98115,PETKİM ALT KAPI 1,40.77091,29.74523,0,,0,
80206,TÜYSÜZLER 4,40.782187,29.924409,0,,0,
40360,BOĞAZOVA CADDESİ 1,40.7892091,29.9604231,0,,0,
40362,KARAKÖPRÜ PAZARYERİ 2,40.7035103,29.8539088,0,,0,
96520,SARIMEŞE ESKİ GARAJ 1,40.735131,30.043148,0,,0,
96049,ARSLANBEY KAMPÜS 1,40.7053979,30.0259773,0,,0,
90023,KANDIRA OTOBÜS  TERMİNALİ,41.0681955,30.1477477,0,,0,
90111,SARNIÇLAR 2,41.026204,30.092621,0,,0,
40201,PAŞA CADDESİ 1,40.7671618,29.9651121,0,,0,
96639,ŞİRİNSULHİYE MİROĞLU CADDESİ 2,40.705634,30.102905,0,,0,
40353,ŞEHİT SÜLEYMAN URAL,40.767225,29.848237,0,,0,
98172,HEREKE TERMİNALİ 1,40.7839806,29.6152603,0,,0,
90761,MESKEN SOKAK 3,40.8099167,29.6514188,0,,0,
98324,KALBURCU ADIÖREN MEVKİİ 1,40.819712,29.733182,0,,0,
98407,KALBURCU ADIÖREN MEVKİİ,40.819667,29.732983,0,,0,
11410,EREĞLİ GİRİŞ,40.7020903,29.6746762,0,,0,
90404,AKÇAKOCA İLKOKULU 1,41.0685,30.153362,0,,0,
90582,DİNÇ SOKAK,41.1343943,30.0233152,0,,0,
40301,EROL KÖSE SOKAK 1,40.772648,29.812471,0,,0,
11141,BELEN KÖYÜ ÇIKIŞ 1,40.835066,29.763403,0,,0,
80130,ÇARDAK SOKAK,40.759375,29.858775,0,,0,
10387,PANAYIR MEZARLIK,40.6702605,29.8829548,0,,0,
80631,ÇAYIRKÖY 3,40.801224,29.995558,0,,0,
90060,KANDIRA İTFAİYE AMİRLİĞİ,41.0704864,30.1534607,0,,0,
40190,DERNEK SOKAK 1,40.7643582,29.8290012,0,,0,
41320,TEMİZ SOKAK,40.7875524,29.572081,0,,0,
11185,KARANFİL SOKAK 1,40.7811749,29.9861043,0,,0,
11181,KARŞI SOKAK 1,41.147478,30.306306,0,,0,
80408,MİMAR SİNAN ORTAOKULU,40.7727782,29.956771,0,,0,
70432,ADNAN MENDERES İMAM HATİP LİSESİ 1,40.701927,29.818161,0,,0,
90351,KURTYERİ SAHİL YOLU,41.1642015,30.2321916,0,,0,
90080,DALCA 2,41.008127,30.103261,0,,0,
90079,DALCA 1,41.008137,30.103513,0,,0,
96332,TERCAN SOKAK 1,40.7007871,30.1367652,0,,0,
96649,DERBENT ATA İLKOKULU 1,40.70642,30.103964,0,,0,
10557,HEREKE TAŞOCAKLARI 2,40.7930484,29.6376663,0,,0,
10558,HEREKE TAŞOCAKLARI 1,40.79275,29.637823,0,,0,
96382,NUSRETİYE CAMİ 1,40.6958483,30.0914062,0,,0,
90121,MERKEZ ERİKLİ CAMİ 1,41.072155,30.033533,0,,0,
90467,ÖREN CAMİ 1,40.99803,30.077631,0,,0,
80926,HASANOĞLU SAPAĞI,40.794853,30.044527,0,,0,
80925,HASANOĞLU SAPAĞI 1,40.794926,30.044565,0,,0,
90690,YILDIZLI SOKAK,40.7665903,29.7930113,0,,0,
90749,YILDIZLI SOKAK 1,40.7667203,29.7930388,0,,0,
40266,FURKAN SOKAK,40.7758616,29.9680761,0,,0,
40407,BOZKENT SOKAK,40.7011048,29.877921,0,,0,
90616,ÇELİKLER SOKAK,40.7653871,29.8004965,0,,0,
90617,NANE SOKAK,40.7654423,29.8005849,0,,0,
40409,GEDİKLİ SOKAK 1,40.6991305,29.8779723,0,,0,
11213,ARSLANBEY DEPOLAMA ALANI 1,40.699241,30.035862,0,,0,
96581,ARSLANBEY DEPOLAMA ALANI,40.699284,30.035774,0,,0,
96080,TAŞOCAĞI SAPAĞI 2,40.687008,30.033751,0,,0,
10091,PINAR CADDESİ 1,40.710783,29.932247,0,,0,
11458,BEYCE SAPAĞI 2,40.9912982,30.0634369,0,,0,
70462,GÖZLEMEN TEPE,40.708885,29.82019,0,,0,
42001,MUAMMER AKSOY CADDESİ,40.805219,29.430069,0,,0,
41105,AVLUBURUN MEVLEVİ SOKAK,40.770386,30.199482,0,,0,
96519,SARIMEŞE ESKİ GARAJ,40.735047,30.04303,0,,0,
60066,KİRAZPINAR YANYOL,40.8099276,29.4691304,0,,0,
90112,SARNIÇLAR 5,41.021884,30.075403,0,,0,
42333,PAŞAAĞIZI DERESİ 1,41.150406,30.197317,0,,0,
90417,KATÇALI MEVKİİ 1,41.039387,30.082775,0,,0,
90110,KATÇALI MEVKİİ,41.039397,30.082869,0,,0,
10440,YENİKÖY ATAKENT 9/1,40.704483,29.887235,0,,0,
98179,HEREKE KAHVELER 1,40.7869273,29.6185434,0,,0,
10090,PINAR CADDESİ,40.711014,29.932412,0,,0,
41169,İLİM CADDESİ,40.795443,29.7734,0,,0,
81064,ORHANİYE 6,40.859283,30.071041,0,,0,
94198,HAYRİYE MERKEZ,40.633747,29.572943,0,,0,
41760,GEBZE CENTER AVM,40.796844,29.442766,0,,0,
11460,EGERCİLİ OKUL,40.9952069,30.022915,0,,0,
20221,ÇAYIROVA ZİRAAT BANKASI 1,40.8260673,29.3734356,0,,0,
41485,CUMHURİYET ANADOLU LİSESİ,40.81619,29.38575,0,,0,
60141,YILDIRIM CADDESİ 1,40.814491,29.3784568,0,,0,
10434,KOMUTAN SOKAK 1,40.69776,29.888063,0,,0,
41816,NACİ SOKAK,40.7936173,29.3726133,0,,0,
60060,HZ. ÖMER CAMİ,40.8104117,29.4670973,0,,0,
90604,APTİPAŞA 1,41.0020932,29.9755661,0,,0,
20142,ALİ HAYDAR EFENDİ CADDESİ 1,40.8171233,29.3672127,0,,0,
81182,BAYRAKTAR KÖY İÇİ,40.7873567,30.0929892,0,,0,
30063,İSTASYON KÖPRÜSÜ 1,40.7820214,29.4114657,0,,0,
90000,HEDİYELİ 4 EVLER,41.0570551,30.0428346,0,,0,
11099,OMURCALI SAPAĞI 1,40.937203,30.260185,0,,0,
81169,CAHAR DUDAYEV PARKI,40.7749111,29.9499279,0,,0,
90583,SAHİL CADDESİ,41.1300243,30.0119687,0,,0,
81142,KIBRIS SOKAK,40.7054023,29.9212752,0,,0,
60190,MEVLANA CAMİ,40.807236,29.387653,0,,0,
81138,MANDIRA YOLU 1,40.8380036,30.0424247,0,,0,
90247,KIRKARMUT DURAKLI 1,41.001775,30.138937,0,,0,
81143,ULUBATLI HASAN CADDESİ,40.7028383,29.9201775,0,,0,
41088,ŞİRİN SOKAK,40.7591105,29.8626953,0,,0,
60677,GEBZE TEKNİK ÜNİVERSİTESİ 1,40.8166337,29.3614742,0,,0,
60616,PELİTLİ YOLU CADDESİ 2,40.8581111,29.4469634,0,,0,
60619,PELİTLİ YOLU CADDESİ 5,40.8590201,29.4495375,0,,0,
30096,DARICA İSKELE,40.7541325,29.3910532,0,,0,
40348,PAŞA CADDESİ 2,40.7671643,29.9625744,0,,0,
88000,AKPINAR DURAĞI 2,40.7942353,29.8833183,0,,0,
60687,GEBZE TEKNİK ÜNİVERSİTESİ 2,40.8093361,29.3656132,0,,0,
42020,GÜZERGAH SOKAK 1,40.786194,29.385567,0,,0,
11108,SAĞLIK BİLİMLERİ FAKÜLTESİ 1,40.816925,29.910825,0,,0,
88001,KULFALI AŞAĞI PINAR DURAĞI,40.7948553,29.8924622,0,,0,
60447,BAHARİYE CADDESİ,40.79309,29.41146,0,,0,
60428,MEHMET AKİF ERSOY CAMİ,40.7934958,29.4185325,0,,0,
30429,OKUL CADDESİ,40.7842285,29.3994044,0,,0,
30107,DARICA BELEDİYE HİZMET BİNASI,40.7622019,29.3859754,0,,0,
30430,OKUL CADDESİ 1,40.78416452,29.39985394,0,,0,
30431,ÇEVİK SOKAK,40.78202868,29.39722262,0,,0,
20261,ÇAĞRI SOKAK,40.8461774,29.3803414,0,,0,
90120,HEDİYELİ 4,41.058652,30.050035,0,,0,
20286,ALİYA İZZET BEGOVİÇ PARKI,40.8627881,29.3757108,0,,0,
41293,KADİFE SOKAK 1,40.8666768,29.3802441,0,,0,
30211,ARAS SOKAK,40.78951316,29.37321805,0,,0,
30212,ARAS SOKAK 1,40.78945661,29.37332749,0,,0,
30416,BARBAROS İLKOKULU 1,40.78907278,29.3895158,0,,0,
30425,60. YIL ORTAOKULU 1,40.78608599,29.39913034,0,,0,
30426,60. YIL ORTAOKULU,40.786194,29.399063,0,,0,
81139,NAMIK KEMAL ANADOLU LİSESİ,40.7670974,29.9561992,0,,0,
80401,ARNAVUT SOKAK 1,40.7920137,29.9630013,0,,0,
30433,BİNGAZİ SOKAK 1,40.78163807,29.39482258,0,,0,
30434,BİNGAZİ SOKAK,40.78141758,29.39462183,0,,0,
30438,RAUF ORBAY CADDESİ,40.7801931,29.39239414,0,,0,
30439,SEVENGÜL SOKAK,40.77927895,29.39067524,0,,0,
30440,SEVENGÜL SOKAK 1,40.779404,29.39064,0,,0,
60206,ULUS ORTAOKULU,40.8091017,29.3917861,0,,0,
30062,CİHAN SOKAK,40.78085,29.409489,0,,0,
10029,YENİKÖY YURT 1,40.6949796,29.8922321,0,,0,
10895,MACUR SOKAK,41.1706483,30.3414577,0,,0,
10032,YENİKÖY ÜÇYOL 1,40.693054,29.897976,0,,0,
70438,YÜZBAŞILAR KAPI,40.72467,29.79993,0,,0,
10038,CEYHAN CADDESİ,40.70688075,29.90383506,0,,0,
70443,GÖLCÜK KERİM AĞA,40.716633,29.806116,0,,0,
10061,YEŞİLKENT ORTAOKULU,40.68338383,29.92637814,0,,0,
96601,SULTAN ABDÜLHAMİTHAN CAMİ 1,40.704847,30.023995,0,,0,
10067,BAHÇECİK ÜÇYOL 1,40.66803602,29.91492974,0,,0,
10068,YETİMOĞLU SOKAK,40.66792105,29.91456651,0,,0,
10070,BAHÇECİK SPOR STADI,40.66841,29.912613,0,,0,
10071,BAHÇECİK HÜRRİYET CADDESİ,40.67066864,29.91223584,0,,0,
10075,TÜRKOĞLU SOKAK,40.679092,29.911371,0,,0,
40300,GÖRKEM SOKAK 1,40.7771008,29.8086494,0,,0,
41012,MEHTER SOKAK,40.705379,29.941173,0,,0,
11323,BAŞİSKELE VALİDE KÖPRÜ,40.60346006,29.5355745,0,,0,
10079,GÜNDÜZ SOKAK,40.68522862,29.91022362,0,,0,
10082,YALDIZ SOKAK,40.69381759,29.90955532,0,,0,
10083,CENK SOKAK,40.71166337,29.92424258,0,,0,
10084,TÜPRAŞ TİCARET LİSESİ 2,40.71147397,29.92539252,0,,0,
10085,TÜPRAŞ TİCARET LİSESİ 1,40.71138463,29.92540306,0,,0,
10087,HÜRMET SOKAK,40.71002966,29.92650437,0,,0,
10088,BAŞİSKELE KAYMAKAMLIK 1,40.71057344,29.9295186,0,,0,
70107,6. ADA,40.697765,29.833633,0,,0,
10039,BAHÇECİK FIRIN,40.70450535,29.90333811,0,,0,
10040,BAHÇECİK FIRIN 1,40.704422,29.903217,0,,0,
10041,YENİ MAHALLE ÜST DURAK,40.70261808,29.90369407,0,,0,
10043,YENİKÖY SAPAĞI 2,40.69957135,29.90514128,0,,0,
10044,KOÇOĞLU CADDESİ 1,40.69776652,29.9068771,0,,0,
10045,HACI ASLAN CADDESİ,40.69633756,29.90845636,0,,0,
98148,CEMAL GÜRSEL CADDESİ,40.7775042,29.7135929,0,,0,
96485,BAHÇELİEVLER CAMİ,40.7433164,30.0390437,0,,0,
90020,EŞME D 100,40.7320094,30.1900054,0,,0,
10050,BAHÇECİK DAMLAR İLKOKULU 1,40.69410548,29.91916808,0,,0,
10051,BAHÇECİK DAMLAR İLKOKULU,40.69406379,29.91933897,0,,0,
80603,830. ADA 1,40.765918,30.015194,0,,0,
10056,YEŞİL PARK,40.68576452,29.92471599,0,,0,
80128,MUAMMER DERELİ ŞİRİNTEPE AİLE SAĞLIĞI MERKEZİ,40.761375,29.861183,0,,0,
10004,YUVAM 1,40.70966646,29.87025104,0,,0,
40094,ÖREN SAPAĞI,40.8408852,29.8549982,0,,0,
80676,SOYKAN SOKAK 1,40.788397,29.959004,0,,0,
80071,ULUBEY ANADOLU LİSESİ,40.7649241,29.8675783,0,,0,
12350,SELANİK CADDESİ,40.79458,29.9479,0,,0,
10594,DEĞİRMENDERE VAPUR İSKELESİ,40.7221865,29.7843548,0,,0,
11328,NİHAT BAYRAK SOKAK,40.68247369,29.55866042,0,,0,
70106,ANAFARTALAR CADDESİ 8,40.7159025,29.8110357,0,,0,
11336,NASUH AKAR SOKAK,40.68384818,29.56161722,0,,0,
11243,ŞEVKATİYE MERKEZ 2,40.6916473,30.0386756,0,,0,
80169,HACI BAYRAM VELİ SOKAK 1,40.776082,29.914938,0,,0,
80167,SILA SOKAK 2,40.773611,29.914881,0,,0,
11350,FATİH SULTAN MEHMET CAMİ,40.81074981,29.44849849,0,,0,
11353,YUNUS EMRE ORTAOKULU 1,40.80827088,29.44441692,0,,0,
11354,EYÜP SULTAN CADDESİ 1,40.80717865,29.44254935,0,,0,
96196,DARICA SOKAK,40.74706,30.016005,0,,0,
81206,AMBER SOKAK,40.7629197,29.8707404,0,,0,
94200,YALAKDERE JANDARMA 1,40.606587,29.560993,0,,0,
94202,YALAKDERE MEYDAN 1,40.604669,29.529572,0,,0,
96230,KÖSEKÖY MERKEZ PARK 2,40.7391276,30.002622,0,,0,
10175,14. ADA 1,40.7052761,29.949465,0,,0,
40226,KAŞIKÇI MERKEZ CAMİ,40.875282,29.875076,0,,0,
10015,YENİKÖY ATAKENT 9,40.70458094,29.88713517,0,,0,
10016,YENİKÖY ATAKENT 8,40.70705291,29.88780312,0,,0,
10017,YENİKÖY ATAKENT 7,40.70721,29.889254,0,,0,
10018,YENİKÖY ATAKENT 6,40.70713777,29.89122476,0,,0,
10019,YENİKÖY ATAKENT 5,40.70571108,29.89078904,0,,0,
10135,BORUSAN İLKOKULU 1,40.71138191,29.90821969,0,,0,
10136,BAHÇECİK SEYMEN,40.71061115,29.90377881,0,,0,
10138,YENİKÖY KAVŞAĞI 2,40.70705322,29.88062579,0,,0,
10140,ÜÇEVLER GÖLCÜK,40.70595,29.868752,0,,0,
10141,TÜVTÜRK GÖLCÜK 2,40.70580842,29.8664209,0,,0,
10142,YAZLIK SAPAĞI 4,40.70635,29.875902,0,,0,
10143,YENİKÖY KAVŞAĞI 1,40.70689968,29.88264311,0,,0,
10144,BAHÇECİK SEYMEN 1,40.71036609,29.90443934,0,,0,
10145,BORUSAN İLKOKULU,40.71123459,29.90898935,0,,0,
10261,KARAOSMANOĞLU HAFIZ MUHARREM CAMİ,40.7049574,29.9731472,0,,0,
10147,DAĞ SÜMBÜLÜ SOKAK,40.71284192,29.92065883,0,,0,
10172,AYDINKENT MUHTARLIĞI,40.70779483,29.94833583,0,,0,
60465,1445/11. SOKAK,40.7901679,29.4022514,0,,0,
60464,1445/11. SOKAK 1,40.7901739,29.4019646,0,,0,
60376,ŞEHİT SELAHATTİN YAPRAK,40.81004,29.426254,0,,0,
40224,İSHAKÇILAR CAMİ 1,40.904728,29.851051,0,,0,
10185,AYDINKENT SAPAĞI 1,40.68766416,29.95739363,0,,0,
10095,İLGÜN SOKAK,40.7251479,29.9876559,0,,0,
41037,KULLAR FAKÜLTE CADDESİ,40.728848,29.964819,0,,0,
96351,YÜKSEK OKUL DURAĞI,40.7054764,30.1012462,0,,0,
96423,KADIMEZARI CADDESİ 1,40.696274,30.078661,0,,0,
20219,YENİ MAHALLE PASTANE,40.824005,29.371973,0,,0,
11347,SGK MÜDÜRLÜĞÜ DEPOLAMA ALANI,40.8328801,29.4242191,0,,0,
96403,ŞEVKATİYE İLKOKULU 1,40.689213,30.037914,0,,0,
11239,19 MAYIS CADDESİ,40.80707714,29.40253615,0,,0,
30478,DUDAYEV PARKI 1,40.7579346,29.3754016,0,,0,
41026,ORDULULAR SOKAK 1,40.74798,29.97108,0,,0,
41070,BELGİN SOKAK,40.71788,29.968718,0,,0,
11253,ÖZKAR SOKAK,40.7251,29.984571,0,,0,
96402,ŞEVKATİYE İLKOKULU 2,40.689215,30.038116,0,,0,
99027,AĞVA MERKEZ 1,41.1386694,29.8559689,0,,0,
11261,GÜLTEPE SOKAK,40.86229,29.574541,0,,0,
41263,ÖNDER CADDESİ,40.7627235,29.8415387,0,,0,
11269,MERMERCİLER OSB 1,40.863873,29.559689,0,,0,
11549,BÖĞÜRGEN,40.896168,29.995422,0,,0,
11550,BÖĞÜRGEN ŞAHBAZLAR,40.905796,30.011658,0,,0,
11552,GÖKÇELER,40.895847,30.026485,0,,0,
11553,SÜVERLER 1,40.904842,29.949703,0,,0,
30068,AYDOGAN SOKAK 1,40.76876848,29.3970415,0,,0,
30069,AYDOGAN SOKAK,40.76873009,29.39723455,0,,0,
30070,DARICA MEZARLIK,40.76608135,29.39440395,0,,0,
30071,DARICA MEZARLIK 1,40.76590512,29.39443333,0,,0,
30215,ZEKİ GEZER ORTAOKULU 1,40.78719354,29.37293182,0,,0,
30216,AŞİROĞLU SAAT KULESİ,40.78573,29.372942,0,,0,
30218,HAKİMİYET SOKAK,40.78641023,29.37295265,0,,0,
30219,HAKİMİYET SOKAK 1,40.78627061,29.372989,0,,0,
30221,YAHYA SOKAK 1,40.78696932,29.36839015,0,,0,
41303,521. SOKAK 1,40.791444,29.5418208,0,,0,
30228,KETENCİLER SOKAK 1,40.780376,29.374681,0,,0,
30230,ŞEYMA SOKAK 1,40.779137,29.374102,0,,0,
42021,GAZİLERDAĞI TABİAT PARKI 1,40.82914,29.431557,0,,0,
30233,DARICA KÜÇÜK SANAYİ SİTESİ 1,40.7806594,29.37202082,0,,0,
30234,DARICA KÜÇÜK SANAYİ SİTESİ,40.78063733,29.37190356,0,,0,
30257,ATMACA SOKAK 1,40.77208755,29.38025144,0,,0,
30258,ATMACA SOKAK,40.77233983,29.38033775,0,,0,
30259,BOSNA SOKAK,40.77066027,29.38182314,0,,0,
30261,BOSNA SOKAK 1,40.77060471,29.38157268,0,,0,
30262,MEZBAHANE ÜSTÜ 1,40.76826863,29.3843025,0,,0,
30263,MEZBAHANE ÜSTÜ 2,40.76814,29.383928,0,,0,
30264,İYİGÜN SİTESİ,40.76599331,29.38370557,0,,0,
10192,YUVACIK MERKEZ 1,40.68671527,29.96641801,0,,0,
11059,KUZU SOKAK SAPAĞI,40.7097938,29.9993359,0,,0,
10195,KİRAZLIK SOKAK,40.69087,29.968805,0,,0,
10198,FATİH MEZARLIĞI,40.69301229,29.97036528,0,,0,
10200,YUMRUKENT 2,40.69776325,29.97518833,0,,0,
10190,KARADUMAN SOKAK 1,40.68529,29.9634,0,,0,
10203,YUVAKENT,40.702267,29.980986,0,,0,
10204,YUVAKENT 1,40.70218,29.981178,0,,0,
10205,ARITMA DEPOLAMA ALANI 1,40.70677942,29.98209524,0,,0,
10207,BEYAZ ZAMBAK SOKAK,40.7176954,29.9867398,0,,0,
10212,KARTONSAN İLKOKULU,40.71941609,29.98553092,0,,0,
10208,BEYAZ ZAMBAK SOKAK 1,40.7170863,29.9837547,0,,0,
10209,ÇOBANOĞLU SOKAK,40.7194377,29.9841608,0,,0,
41228,KİMYA İHTİSAS OSB,40.8086242,29.5636108,0,,0,
11055,KURUÇEŞME MUAMMER AKSOY CADDESİ,40.766724,29.86839,0,,0,
10331,TOPALLAR CADDESİ 2,40.7314543,29.9985791,0,,0,
11558,AKÇAGİL 6,40.984417,29.979353,0,,0,
11559,KUBUZCU SAPAĞI,41.01943,29.967365,0,,0,
11561,ÇALCA,41.01065,29.953457,0,,0,
11562,YASSIBAĞ 1,40.83803,30.037798,0,,0,
11563,GÜVERCİNLİK,40.89331,30.173744,0,,0,
11565,EĞERCİLİ BEYGİRLER SAPAĞI,40.998096,30.045412,0,,0,
11616,SEYİTALİLER,40.97664,30.191162,0,,0,
11619,TAVŞANLI,40.814236,29.510235,0,,0,
11620,MUDARLI,41.00864607,29.55504672,0,,0,
11622,DEMİRCİLER 1,40.84726,29.553007,0,,0,
40171,ÇENEDERE CADDESİ,40.759975,29.822374,0,,0,
11625,KULFALLI KÖYÜ GİRİŞİ 1,40.792732,29.892616,0,,0,
11626,TEPECİK 2,40.869854,29.616776,0,,0,
11629,SİPAHİLER MERKEZ MEVKİİ 1,40.855923,29.781622,0,,0,
11630,ŞEMSETTİN 5,40.871475,29.744402,0,,0,
11631,NAİPKÖY,40.86475,29.735373,0,,0,
11632,HİMMETLİ KÖSELER 1,40.8894,29.845663,0,,0,
41089,ŞİMŞEK SOKAK,40.7064203,30.1368172,0,,0,
11634,YAĞCILAR MERKEZ GİRİŞ,40.911175,29.65676,0,,0,
41334,4314. SOKAK,40.694344,29.83618,0,,0,
11637,KIYIRLI 1,40.897198,29.740705,0,,0,
11638,SEVİNDİKLİ 2,40.887283,29.772076,0,,0,
11639,NAİPKÖY 1,40.86616,29.737085,0,,0,
11640,ORUÇLU MEVKİİ,40.9296429,29.79939312,0,,0,
11642,KIDIŞILLI,40.92049,29.800432,0,,0,
30265,İYİGÜN SİTESİ 1,40.7660726,29.3839003,0,,0,
30330,AKÇAKOCA SOKAK,40.77594989,29.3836406,0,,0,
30331,İNÖNÜ CADDESİ 1,40.77721675,29.38363072,0,,0,
30332,İNÖNÜ CADDESİ,40.77720904,29.38340059,0,,0,
30336,SOKULLU CADDESİ 1,40.77821845,29.38612422,0,,0,
30337,SOKULLU CADDESİ 2,40.77831003,29.38608717,0,,0,
30338,NENEHATUN MEZARLIK 1,40.77553149,29.38040834,0,,0,
30339,ORHUN SOKAK,40.7787342,29.38854373,0,,0,
30340,NENEHATUN DÖRTYOL,40.778814,29.38871765,0,,0,
30341,NENEHATUN DÖRTYOL 3,40.77892088,29.38861255,0,,0,
30342,LOKMAN HEKİM CADDESİ,40.77900263,29.38822048,0,,0,
30240,DARICA BARBAROS CADDESİ,40.78373912,29.36530675,0,,0,
30241,DARICA BARBAROS CADDESİ 1,40.78361623,29.36511155,0,,0,
30243,SERVET YALÇIN ORTAOKULU 2,40.78542,29.365503,0,,0,
30244,ULUBEY SOKAK 1,40.78745048,29.36651732,0,,0,
30247,DARICA HAYVANAT BAHÇESİ,40.78493667,29.37090908,0,,0,
30248,DURMUŞ SOKAK,40.78257239,29.37287201,0,,0,
30252,NENEHATUN STADYUM,40.77692991,29.37720001,0,,0,
10353,AHMET YESEVİ CADDESİ ASKERİYE,40.7198846,29.9478227,0,,0,
10251,MAHMUTPAŞA CADDESİ,40.7231111,29.9659171,0,,0,
10266,YUVACIK KOMEK,40.688159,29.964727,0,,0,
10157,BAŞİSKELE SERDAR MERKEZ 1,40.711025,29.938866,0,,0,
10158,BAŞİSKELE SERDAR MERKEZ,40.71092578,29.93877844,0,,0,
10159,YUVACIK SERDAR ÇEŞME 1,40.709038,29.940588,0,,0,
10160,YUVACIK SERDAR ÇEŞME,40.70899654,29.94087707,0,,0,
10162,PASİNLER CADDESİ,40.70962143,29.94187837,0,,0,
10163,EMİRSULTAN CADDESİ,40.71050963,29.94331973,0,,0,
94231,KARAPINAR İLKOKULU,40.6661854,29.6142565,0,,0,
10170,SPORİUM,40.70973341,29.9475393,0,,0,
10096,ÇATALYOL,40.70474451,29.9319671,0,,0,
30403,SIRASÖĞÜTLER TREN,40.7915977,29.3911983,0,,0,
60250,YAVUZ SELİM MUHTARLIĞI 1,40.8136413,29.3977353,0,,0,
70591,KÖROĞLU CADDESİ 5,40.7140474,29.7885173,0,,0,
10547,DOĞANTEPE PARKI,40.702254,29.9991411,0,,0,
10548,DOGANTEPE PARKI 1,40.7022064,29.999075,0,,0,
11773,KEKİK SOKAK,40.71281,30.117105,0,,0,
11775,KETENCİLER YUKARI MEVKİİ,40.75702077,30.14072521,0,,0,
11779,YENİÇAM KAYNARCA,40.98368034,30.24248332,0,,0,
11781,KUZEY SOKAK,40.7496,29.952797,0,,0,
70209,HALIDERE ÜST GEÇİT,40.71424,29.744425,0,,0,
70227,DEĞİRMENDERE ERVATAN,40.7186823,29.7861161,0,,0,
11845,TAŞOCAKLARI YOLU 2,40.81272912,29.46700841,0,,0,
11863,KARGALI 9,40.9531435,29.66989999,0,,0,
11864,ELBİZLİ MERKEZ 1,40.94191811,29.72749297,0,,0,
11865,ELBİZLİ MERKEZ 2,40.94193688,29.72741153,0,,0,
11866,DURAKLI MERKEZ 2,40.95800123,29.72937653,0,,0,
11867,DURAKLI GİRİŞ 1,40.95870828,29.72767594,0,,0,
11974,GÜNDOĞDU YURT,40.80084,29.953066,0,,0,
10097,ÇATALYOL 1,40.70501661,29.9320106,0,,0,
10098,GÜRKAN SOKAK,40.70347249,29.9334929,0,,0,
10099,DİRİLİŞ SOKAK,40.70343818,29.93334048,0,,0,
10101,ZAHİR SOKAK,40.70193875,29.93473868,0,,0,
10102,MERT CAN SOKAK 1,40.70052045,29.93638273,0,,0,
10103,MERT CAN SOKAK,40.70058111,29.9361572,0,,0,
10104,DÜZLEM SOKAK 1,40.6986133,29.93687383,0,,0,
10105,DÜZLEM SOKAK,40.69812876,29.93694022,0,,0,
10106,NERMİN SOKAK 1,40.69719411,29.93746961,0,,0,
10107,NERMİN SOKAK,40.6972814,29.93730516,0,,0,
10453,YENİKÖY KAPALI PAZAR,40.7008397,29.8850087,0,,0,
60788,ŞEHİT SERKAN ÖZÇERİ PARKI 2,40.8029398,29.4433822,0,,0,
10118,ALTINKENT MUHTARLIĞI,40.69934737,29.94465985,0,,0,
10122,HAVUZLU BAHÇE 1,40.70155025,29.94275959,0,,0,
10124,SEMERCİ ALİ 1,40.70744337,29.93863215,0,,0,
10125,SEMERCİ ALİ,40.70754518,29.9386308,0,,0,
10128,OSMANİYE SOKAK,40.70828972,29.93536514,0,,0,
10130,BELEDİYE YOLU 1,40.71430373,29.92849148,0,,0,
10131,YUNUSLAR SOKAK,40.71312763,29.92157435,0,,0,
10304,BARBAROS CADDESİ 1,40.74054331,29.96774204,0,,0,
10305,BARBAROS CADDESİ 2,40.7392076,29.9696061,0,,0,
10491,17. BLOK B 1,41.0653692,30.1344193,0,,0,
12108,TUFANLI SOKAK 1,40.764915,29.840624,0,,0,
11214,ENGİN CADDESİ,40.7706738,29.8266094,0,,0,
12220,KUVAYİ MİLLİYE CADDESİ,40.8007064,29.96172213,0,,0,
41530,HIZIR REİS SOKAK 2,40.795097,29.953426,0,,0,
11590,MEŞALE SOKAK,40.768986,29.847998,0,,0,
41627,HACI İSMAİL ÇOPUR AİLE SAĞLIĞI MERKEZİ,40.7798929,29.3995318,0,,0,
11604,KIRKARMUT GİRİŞ,40.989605,30.14174,0,,0,
11605,SİNANLI BİLALLI 2,40.98885,30.17602,0,,0,
11606,DAVUTLAR 1,40.971973,30.202684,0,,0,
11609,YUKARI SÜLLÜ MEVKİİ,41.04262,30.174477,0,,0,
11611,KALBURCU,40.8392421,29.72599983,0,,0,
90537,KUMCAĞIZ CADDESİ 4,41.15689,30.237534,0,,0,
10315,VEZİRÇİFTLİĞİ ÜÇYOL 2,40.74264092,29.96041816,0,,0,
10316,VEZİRÇİFTLİĞİ ÜÇYOL 1,40.74245883,29.95794896,0,,0,
10217,DOĞANTEPE CUMHURİYET CADDESİ 1,40.7027,29.998913,0,,0,
10320,PARK SOKAK,40.73981714,29.9622649,0,,0,
41028,HACI İSMAİLOĞLU SOKAK,40.726192,29.99472,0,,0,
10184,HACI MECİT BULVARI,40.6917206,29.9526056,0,,0,
10326,HACI HALİM 3,40.7515306,29.99032272,0,,0,
10327,HACI HALİM 2,40.75050407,29.99078057,0,,0,
10330,KÖSEKÖY STADI,40.74000351,29.99513212,0,,0,
41562,ZABITAN MAHALLESİ MAHALLE KONAĞI,40.768343,29.909244,0,,0,
10333,RAHMİYE SAPAĞI 1,40.723686,30.002146,0,,0,
60796,OSMANGAZİ TÜNELİ 2,40.8013317,29.3806453,0,,0,
10338,KİRAZLIKENT 1,40.68193056,29.89859708,0,,0,
10340,KULLAR DÜĞÜN SALONU 2,40.72449621,29.99181211,0,,0,
10227,DOĞANTEPE HÜRRİYET CADDESİ,40.696292,29.99478,0,,0,
10344,KULLAR MERKEZ,40.7231042,29.99146236,0,,0,
41992,ADEM CEYLAN FİNAL TEKNİK KOLEJİ,40.8357833,29.4325949,0,,0,
42048,623. SOKAK,40.7927857,29.4162623,0,,0,
10350,HACI EYÜP SOKAK,40.72108381,29.98750339,0,,0,
10351,GOODYEAR KOOPERATİFİ,40.722767,29.993925,0,,0,
10358,VEZİRÇİFTLİĞİ  MERKEZ 1,40.742455,29.957804,0,,0,
10359,VEZİRÇİFTLİĞİ MUHTARLIĞI 1,40.74116087,29.9575173,0,,0,
80244,HAYAT CADDESİ 1,40.773973,29.923743,0,,0,
10362,VEZİRÇİFTLİĞİ TRAFO 1,40.74164577,29.96131039,0,,0,
10166,YUVACIK SERDAR AİLE SAĞLIĞI MERKEZİ,40.71199,29.946012,0,,0,
10361,KULLAR 2 NOLU AİLE SAĞLIĞI MERKEZİ 1,40.739042,29.959491,0,,0,
20040,ÇAYIROVA VEYSEL KARANİ AİLE SAĞLIK MERKEZİ 1,40.8186367,29.4024583,0,,0,
41778,CEBECİ 11,41.186832,30.254618,0,,0,
20264,TURGUT SOKAK 1,40.8480154,29.3813277,0,,0,
20258,TURGUT ÖZAL CADDESİ 2,40.8575971,29.3746411,0,,0,
10890,MEHMET AKİF ERSOY CADDESİ 7,40.7742438,29.8056908,0,,0,
41817,ÖĞRETMENLER CADDESİ 2,40.760212,29.821764,0,,0,
41909,BAĞÇEŞME HAYAT CADDESİ,40.775887,29.922678,0,,0,
42139,KARLIDERE SOKAK,40.8700463,30.0525591,0,,0,
42169,FEVZİYE TEZCAN MESLEKİ VE TEKNİK ANADOLU LİSESİ 1,40.705646,30.02244,0,,0,
11445,KAZANDERE YOLU,40.617527,29.954714,0,,0,
11447,AKSIĞIN YOLU,40.633842,29.965984,0,,0,
20052,AKSE MEZARLIĞI 1,40.82851336,29.40026364,0,,0,
20054,ÇAYIROVA MEZARLIKLAR MÜDÜRLÜĞÜ 1,40.83058054,29.39986721,0,,0,
20068,BUĞRAHAN SİTESİ 1,40.8261194,29.40829702,0,,0,
30253,DARICA İTFAİYESİ 1,40.77504639,29.37801832,0,,0,
30254,DARICA İTFAİYESİ,40.77523165,29.378296,0,,0,
30161,CERRAH SOKAK 1,40.77685916,29.35324784,0,,0,
30162,CEREN SOKAK 1,40.77517107,29.35411423,0,,0,
30163,CEREN SOKAK,40.775276,29.353964,0,,0,
30164,LODOS SOKAK 1,40.773834,29.354578,0,,0,
30165,LODOS SOKAK,40.773815,29.354425,0,,0,
30168,YAVUZ SELİM CADDESİ,40.78938932,29.35133423,0,,0,
30169,YAVUZ SELİM CADDESİ 1,40.78930395,29.35129635,0,,0,
30170,ZÜBEYDE HANIM CADDESİ 2,40.78636,29.35044,0,,0,
30171,ZÜBEYDE HANIM CADDESİ 3,40.786564,29.350298,0,,0,
30176,YILDIRIM BEYAZIT CADDESİ 2,40.79347029,29.35673939,0,,0,
30177,YILDIRIM BEYAZIT CADDESİ 1,40.79341747,29.35694716,0,,0,
30180,SEYMEN SOKAK,40.79426,29.361074,0,,0,
30181,SEYMEN SOKAK 1,40.794167,29.361052,0,,0,
10365,DEMİR SOKAK,40.72346618,29.95906707,0,,0,
10366,SAFİR SOKAK,40.72288152,29.95341003,0,,0,
10368,BAŞİSKELE YURT,40.71752149,29.95164996,0,,0,
10370,PELİT SOKAK,40.72321558,29.96592611,0,,0,
10371,ALSANCAK CADDESİ 1,40.740643,29.983717,0,,0,
10375,NEBİ SOKAK 1,40.69902,29.981157,0,,0,
60901,GEBZE ADALET SARAYI,40.808975,29.418968,0,,0,
10464,DÜĞMECİLER ÇİFLİK,40.906624,30.2186682,0,,0,
10247,HASAN GÜLAY SOKAK,40.72348117,29.9583908,0,,0,
10248,KARDELEN SOKAK,40.72364066,29.96145218,0,,0,
10249,KARDELEN SOKAK 1,40.72371746,29.9617088,0,,0,
10250,ÇAM SOKAK,40.7235781,29.96345973,0,,0,
90077,YUSUFCA SAPAĞI,41.0227429,30.1010501,0,,0,
80706,ALİKAHYA ESKİ BELEDİYE,40.7702841,30.0055129,0,,0,
10270,KUŞBURNU SOKAK 1,40.69757593,29.96042537,0,,0,
10271,OSMAN USTA SOKAK,40.70113781,29.9617267,0,,0,
10272,KELEBEK SOKAK,40.70403775,29.96217741,0,,0,
10273,ELÇİ SOKAK 1,40.7060216,29.96210163,0,,0,
20069,BUĞRAHAN SİTESİ,40.82595216,29.40846084,0,,0,
42289,UZUN YOL SOKAK,40.697353,30.098137,0,,0,
20072,ÇAYIROVA TOPLUM SAĞLIĞI MERKEZİ 1,40.82566323,29.38356694,0,,0,
42357,AYŞİN SOKAK 1,40.756226,30.032488,0,,0,
50066,723/1. SOKAK,40.778534,29.524885,0,,0,
60153,2305. SOKAK 1,40.8228846,29.3832457,0,,0,
20084,BEHRAM ÇOBANOĞLU PARKI 1,40.8325154,29.38797805,0,,0,
20085,BEHRAM ÇOBANOĞLU PARKI,40.832818,29.38831813,0,,0,
60165,2224. SOKAK 1,40.8125419,29.3839558,0,,0,
60187,2157. SOKAK,40.808517,29.388912,0,,0,
60269,911. SOKAK,40.8062661,29.4328024,0,,0,
60299,860/1. SOKAK,40.8058209,29.4249256,0,,0,
20102,METEHAN SİTESİ,40.83116089,29.41082274,0,,0,
20103,METEHAN SİTESİ 1,40.83104707,29.41083613,0,,0,
20104,GÖKDENİZ SİTESİ,40.8317,29.413134,0,,0,
20105,GÖKDENİZ SİTESİ 1,40.83180308,29.41290424,0,,0,
20106,GÜZELTEPE KONUTLARI 1,40.82963497,29.41313397,0,,0,
20107,GÜZELTEPE KONUTLARI,40.82894381,29.41310673,0,,0,
60309,854. SOKAK,40.8067645,29.4291314,0,,0,
60322,846. SOKAK,40.808308,29.425083,0,,0,
20113,GEBZE SGK MÜDÜRLÜĞÜ,40.83318252,29.42228199,0,,0,
10274,ELÇİ SOKAK,40.7058005,29.96196554,0,,0,
80836,SADIKLAR CAMİ,40.8664816,29.9924232,0,,0,
10277,ALİZE PARK,40.710804,29.960045,0,,0,
10278,HIZIR REİS SOKAK 1,40.7125708,29.95841397,0,,0,
10282,TINAZTEPE CADDESİ 1,40.71729984,29.95164611,0,,0,
41223,ORTA CAMİ,40.7088891,29.9631462,0,,0,
80292,29 EKİM ORTAOKULU 1,40.790301,29.9481789,0,,0,
50006,KÖSELER ORTAOKULU 1,40.8639939,29.580152,0,,0,
81065,ORHANİYE CAMİ,40.855957,30.068304,0,,0,
10418,SEYMEN ÜSTÜ,40.708232,29.903931,0,,0,
70265,DEĞİRMENDERE YALI MUHTARLIĞI,40.72002,29.779774,0,,0,
11021,TOKİ KONUTLARI,40.782585,29.94229,0,,0,
20060,472/3. SOKAK,40.828106,29.40148,0,,0,
20117,PALMİYE SİTESİ 1,40.83361,29.41497,0,,0,
20118,YAPI KREDİ BİLGİ İŞLEM MERKEZİ 1,40.83526811,29.4109586,0,,0,
20119,YAPI KREDİ BİLGİ İŞLEM MERKEZİ,40.8355647,29.4107312,0,,0,
20120,ÇAYIROVA İTFAİYE,40.83607,29.408197,0,,0,
20122,KUŞTEPE MESİRE ALANI 1,40.83636664,29.40321438,0,,0,
20124,ÇAĞDAŞKENT MERKEZ,40.8370603,29.3938046,0,,0,
20126,ÇAĞDAŞKENT MEYDAN 1,40.83856688,29.39294825,0,,0,
60478,1401. SOKAK,40.7846766,29.4149141,0,,0,
20131,NAZIM HİKMET CADDESİ 1,40.840115,29.396744,0,,0,
12224,EŞME MEZARLIĞI,40.73438972,30.22956868,0,,0,
12226,BALIK SOKAK,40.698425,29.97983,0,,0,
12229,SARAYLI CADDESİ 1,40.703594,29.802574,0,,0,
60491,1421/1. SOKAK,40.7869366,29.408384,0,,0,
12354,DURHANLI KÖYÜ,40.918385,29.773462,0,,0,
20001,ADEM YAVUZ DEPOLAMA ALANI 1,40.81852713,29.37408571,0,,0,
20005,ERİŞLER MEYDAN 2,40.823772,29.381796,0,,0,
20006,ERİŞLER MEYDAN 1,40.823617,29.38198327,0,,0,
20008,ŞEHİTLİK PARKI 1,40.82423892,29.38523281,0,,0,
20009,ŞEHİTLİK PARKI 2,40.82431084,29.38517421,0,,0,
60488,1440. SOKAK,40.7878224,29.4040181,0,,0,
20017,PİR SULTAN CADDESİ 1,40.8259335,29.39443566,0,,0,
20022,MUAMMER AKSOY CADDESİ 1,40.82144498,29.39257514,0,,0,
20023,MUAMMER AKSOY CADDESİ 2,40.82146757,29.39235632,0,,0,
20025,İNÖNÜ MUHTARLIĞI 1,40.82106037,29.39201147,0,,0,
30283,KIBLE SOKAK,40.79621332,29.36901825,0,,0,
40121,BAŞİSKELE BAĞDAT CADDESİ 2,40.6846278,29.9443003,0,,0,
41765,KİRAZPINAR TOKİ KONUTLARI,40.820719,29.458114,0,,0,
30286,ECEM SOKAK 1,40.79403871,29.37217908,0,,0,
30287,ECEM SOKAK,40.79402245,29.37226891,0,,0,
30292,MORAL SOKAK 1,40.78574793,29.37534543,0,,0,
30293,MORAL SOKAK 2,40.785656,29.375225,0,,0,
30296,ÜLKÜN YALÇIN ANADOLU LİSESİ 2,40.78472418,29.37821947,0,,0,
10297,SÜSLÜ SOKAK,40.72303466,29.97644305,0,,0,
10298,YELİZ SOKAK,40.723297,29.97869,0,,0,
98058,SARUHAN SOKAK 1,40.771398,29.791474,0,,0,
10312,KULLAR KIZKÖPRÜ MEZARLIĞI 1,40.738693,29.985817,0,,0,
10656,İZMİT VAPUR İSKELESİ,40.7599739,29.9233412,0,,0,
10426,HACI ASLAN CADDESİ 1,40.696537,29.911247,0,,0,
10427,OSMANİYE SOKAK 1,40.70811489,29.93546153,0,,0,
98118,SİTE YETMİŞ ALTI,40.7724139,29.7418382,0,,0,
10317,BAHARLI SOKAK,40.7408839,29.9575694,0,,0,
80957,KOLORDU,40.7640536,29.9211039,0,,0,
10559,NAR SOKAK,40.77377165,29.90001217,0,,0,
10560,ORKİDE SOKAK 1,40.77264032,29.8995184,0,,0,
10564,REYHAN SOKAK,40.76929,29.898575,0,,0,
98151,DEDE KORKUT SOKAK,40.7775464,29.7078837,0,,0,
98234,ORTANCA SOKAK 1,40.7957008,29.6464022,0,,0,
10037,SEYMEN ÜSTÜ 1,40.708039,29.904093,0,,0,
10675,DURHASAN MUHTARLIĞI,40.795456,30.040102,0,,0,
10676,KURTDERE TEVFİKİYE 1,40.77765,30.171667,0,,0,
11046,HARMANLIK SOKAK,40.69972,30.061281,0,,0,
20026,AHMET YESEVİ  İLKOKULU 1,40.819885,29.390142,0,,0,
20027,AHMET YESEVİ İLKOKULU,40.81981347,29.39021787,0,,0,
20030,MUHLİS AKARSU PARKI 1,40.82269458,29.38501928,0,,0,
11407,UMUTTEPE DEPOLAMA ALANI,40.8223663,29.9159796,0,,0,
98050,ŞEHİT İZZET SOKAK 1,40.763508,29.799507,0,,0,
41029,BAŞİSKELE SELİM YÜREKTEN MESLEKİ VE TEKNİK ANADOLU LİSESİ 1,40.74537,29.96417,0,,0,
60445,619/2. SOKAK 1,40.7922298,29.4140628,0,,0,
98045,KÖRFEZ YENİYALI AİLE SAĞLIĞI MERKEZİ 2,40.7672856,29.7862991,0,,0,
20041,FİKRİ ALTIOKKA CADDESİ 1,40.81722217,29.40580445,0,,0,
20043,GÜZELTEPE AKÇAKOCA İLKOKULU 2,40.81689467,29.40716415,0,,0,
20044,GÜZELTEPE AKÇAKOCA İLKOKULU 1,40.81706337,29.40759685,0,,0,
20045,BOSNA CADDESİ 1,40.81781605,29.41298755,0,,0,
20046,BOSNA CADDESİ,40.81765212,29.4129556,0,,0,
20047,GEBZE MEZARLIĞI,40.81734406,29.41501781,0,,0,
20177,YUNUS ERGÜZ İLKOKULU 1,40.8355897,29.3800966,0,,0,
60466,577. SOKAK,40.7907334,29.4069273,0,,0,
60503,3011. SOKAK 1,40.773045,29.427097,0,,0,
20182,MÜZDELİFE CAMİ 1,40.83283824,29.3735597,0,,0,
20184,BAĞLAR CADDESİ 3,40.830864,29.372082,0,,0,
20185,BAĞLAR CADDESİ 4,40.83082822,29.37219962,0,,0,
20191,YENİ MAHALLE MERKEZ CAMİ,40.82769483,29.36999264,0,,0,
20198,ALİ HAYDAR EFENDİ CADDESİ,40.81736876,29.36729648,0,,0,
20200,FATİH SULTAN MEHMET PARKI,40.8133524,29.36740877,0,,0,
20201,ÇAYIROVA KÖPRÜSÜ 1,40.8120342,29.368474,0,,0,
42235,AKARSU CADDESİ 1,40.7655879,30.0232789,0,,0,
20231,YAVUZ SELİM CADDESİ 3,40.8129434,29.3712779,0,,0,
10678,KURTDERE TEVFİKİYE,40.77673114,30.17459661,0,,0,
70246,AMİRAL KAYACAN CADDESİ 2,40.723442,29.799131,0,,0,
70353,ANAFARTALAR CADDESİ 3,40.7138338,29.8082524,0,,0,
10682,FULACIK ÇIKIŞ,40.563282,29.602476,0,,0,
10683,KARTEPE SULTANİYE,40.616615,30.080002,0,,0,
10688,SUADİYE İFRAZİYE YOLU,40.67893,30.045692,0,,0,
10689,LÜTFİYE DAVUTKÖPRÜ,40.664444,29.77519,0,,0,
10692,LÜTFİYE GİRİŞ 1,40.663216,29.771235,0,,0,
10694,AVLUBURUN ÇEŞME,40.76984842,30.20161266,0,,0,
81085,BAYRAKTAR ATATÜRK CADDESİ 2,40.784838,30.089313,0,,0,
10701,NÜZHETİYE,40.657814,29.878323,0,,0,
10702,ORTABURUN MERKEZ 3,40.792202,30.19984,0,,0,
10731,MECİDİYE ATATÜRK CADDESİ,40.865105,30.155334,0,,0,
99087,ÇOCUK PARKI SOKAK 1,40.8136025,29.649485,0,,0,
10707,SELİMİYE KÖYÜ 1,40.681343,29.809511,0,,0,
10713,ARPALIK İHSANİYE,40.86275,30.100494,0,,0,
10714,HAVUZLUBAHÇE CADDESİ,40.667324,29.880392,0,,0,
10715,KISALAR KÖYÜ MERKEZ,40.885498,30.074387,0,,0,
10717,HAVUZLUBAHÇE CADDESİ 3,40.67613,29.89327,0,,0,
60765,1827. SOKAK,40.7837196,29.4349055,0,,0,
10940,1855. SOKAK,40.77746,29.437752,0,,0,
10722,TERZİLER SAPAĞI 1,40.904152,30.098524,0,,0,
10724,HAKKANİYE İLKOKULU,40.89694,29.982168,0,,0,
90184,GEBEŞLER MUHTARLIĞI,41.007773,29.998164,0,,0,
11049,KARAAĞAÇ MERKEZ,41.14499109,30.31104616,0,,0,
90481,HACIŞEYH MUHTARLIĞI,40.99408,30.010298,0,,0,
11060,FETHİYE MAHALLESİ,40.92044,29.972792,0,,0,
90186,HACIŞEYH MUHTARLIĞI 1,40.994048,30.01034,0,,0,
40367,MEVLANA CADDESİ 3,40.7756308,29.7959705,0,,0,
11279,HÜRİYET CADDESİ,40.70330603,29.66325744,0,,0,
11282,MERMERCİLER OSB YÖNETİM KAVŞAĞI,40.870205,29.55996,0,,0,
81060,MECİDİYE CAMİ,40.86949,30.150894,0,,0,
20237,KANARYA SOKAK 1,40.85120499,29.40215944,0,,0,
20239,SARMAŞIK SOKAK 1,40.8500827,29.404617,0,,0,
20240,KANARYA SOKAK,40.851555,29.402012,0,,0,
20243,HANIMELİ SOKAK,40.85635186,29.39250325,0,,0,
20245,MUHSİN YAZICIOĞLU CADDESİ 1,40.8579248,29.3941688,0,,0,
20248,ŞEKERPINAR KÖY İÇİ 2,40.86008792,29.38855268,0,,0,
20249,ŞEKERPINAR KÖY İÇİ 1,40.86020731,29.38864768,0,,0,
20251,DEVA ULU CAMİ,40.860943,29.3872,0,,0,
41578,KURUÇEŞME FATİH CAMİ 1,40.7641748,29.8707508,0,,0,
20256,YAVUZ SOKAK 2,40.8554028,29.36771798,0,,0,
20257,TURGUT ÖZAL CADDESİ,40.85761719,29.37479439,0,,0,
20259,GEÇİT SOKAK 1,40.85829191,29.37372532,0,,0,
20260,GEÇİT SOKAK,40.85840998,29.37366552,0,,0,
20265,HUZUR SOKAK 1,40.86052733,29.36804835,0,,0,
20266,HUZUR SOKAK,40.86074021,29.36827537,0,,0,
94085,KARAMÜRSEL HAYRİYE 1,40.6301266,29.5721042,0,,0,
20269,GÜMÜŞ SOKAK 1,40.85901191,29.37078171,0,,0,
20270,GÜMÜŞ SOKAK,40.85904192,29.37097747,0,,0,
20272,ŞEYH EDEBALİ PARKI,40.86160029,29.37178273,0,,0,
20273,ŞEYH EDEBALİ PARKI 1,40.86164112,29.3713363,0,,0,
20278,HİSAR SOKAK 3,40.86401785,29.37125029,0,,0,
20279,HİSAR SOKAK 4,40.86402779,29.37146996,0,,0,
20280,DEPREM KONUTLARI BELEDİYE ŞANTİYESİ,40.86458807,29.37297413,0,,0,
20282,HASAN TAHSİN ORTAOKULU,40.86492888,29.37496465,0,,0,
20283,HASAN TAHSİN ORTAOKULU 1,40.86481194,29.37486834,0,,0,
20284,TOKİ 112 ACİL İSTASYON 2,40.86391669,29.37514976,0,,0,
30267,BİÇER SOKAK,40.76420176,29.38478205,0,,0,
30268,DARICA POSTANE,40.76238883,29.38422036,0,,0,
30269,DARICA POSTANE 1,40.76166217,29.38417518,0,,0,
30272,SUZAN SOKAK,40.7634515,29.38916936,0,,0,
30273,FAİK ŞAHENK İLKOKULU,40.76406,29.388983,0,,0,
30274,FAİK ŞAHENK İLKOKULU 1,40.76449434,29.3893075,0,,0,
30276,AHENK SOKAK 1,40.76599572,29.38912838,0,,0,
30277,AHENK SOKAK,40.76594554,29.38901328,0,,0,
30280,DARICA İMAM HATİP LİSESİ,40.7679209,29.3891111,0,,0,
30281,DARICA İMAM HATİP LİSESİ,40.76797432,29.38897744,0,,0,
30282,KIBLE SOKAK 1,40.79628981,29.36882108,0,,0,
30086,DARICA MİLLET KIRAATHANESİ,40.7583417,29.395547,0,,0,
30289,VALİDE BAĞI SOKAK 1,40.7930587,29.3726359,0,,0,
40068,KOCAELİ ÖĞRETMENLER İLKOKULU,40.771364,29.809197,0,,0,
90290,SARICAALİ MUHARREMLER CAMİ 1,40.958846,30.190558,0,,0,
30054,İNCİRLİK SOKAK 1,40.7792696,29.4122498,0,,0,
60031,KİRAZPINAR YANYOL 1,40.8098015,29.4690849,0,,0,
10680,KAYNARCA MERKEZ MEVKİİ,40.88933,29.980288,0,,0,
98337,AKŞEMSETTİN CADDESİ  2,40.755968,29.796221,0,,0,
10552,İZNİK YOLU CADDESİ  3,40.6886806,29.59424846,0,,0,
10554,İZNİK YOLU CADDESİ 4,40.688755,29.59406,0,,0,
60074,GEBZE İLÇE SAĞLIK MÜDÜRLÜĞÜ 1,40.8000493,29.439922,0,,0,
90777,ÖZDEMİR ATMAN CADDESİ 1,40.7509029,30.0574359,0,,0,
10382,DİKMEN SOKAK,40.6963573,29.95938673,0,,0,
70023,ALİ KUŞÇU CADDESİ,40.68851,29.853592,0,,0,
10393,HIZIR REİS SOKAK,40.71245193,29.95828721,0,,0,
30173,ÖVER SOKAK 1,40.7919063,29.3523556,0,,0,
10520,İNKILAP SOKAK 3,40.7292699,30.01247,0,,0,
20110,99. SOKAK,40.825066,29.414375,0,,0,
11287,MESUDE İŞMAN ORTAOKULU,40.807545,29.451715,0,,0,
11288,KALE SOKAK,40.700016,29.867786,0,,0,
11289,HACI MAHMUT CADDESİ,40.68574,29.961636,0,,0,
11290,ECE SOKAK,40.786217,29.97078,0,,0,
96438,KÖSEKÖY STADI 1,40.739977,29.994972,0,,0,
20137,403. SOKAK,40.8374436,29.3974352,0,,0,
20214,5107/1. SOKAK,40.8211654,29.3697902,0,,0,
20234,542. SOKAK 1,40.83862,29.407862,0,,0,
40013,YALÇIN SOKAK,40.7745476,29.83074,0,,0,
20285,TOKİ 112 ACİL İSTASYON 1,40.86380693,29.37522523,0,,0,
20287,ALİYA İZZETBEGOVİÇ PARKI 1,40.8628127,29.37581679,0,,0,
20294,GAZİOSMAN PAŞA CADDESİ 1,40.86215095,29.37844208,0,,0,
20295,GAZİOSMAN PAŞA CADDESİ,40.86223626,29.37838215,0,,0,
20296,YEŞİL VADİ PARKI 1,40.86393797,29.37886136,0,,0,
20297,YEŞİL VADİ PARKI 2,40.863743,29.37892,0,,0,
20299,ÖZGÜRLÜK CADDESİ,40.86511123,29.37794066,0,,0,
20300,DİLA SOKAK,40.858562,29.379889,0,,0,
20301,ÖZGÜNKENT,40.87012366,29.39364046,0,,0,
20306,ŞEKERPINAR MEZARLIĞI,40.85998046,29.38441181,0,,0,
20309,GEBZE SSK MÜDÜRLÜĞÜ,40.83339893,29.42231483,0,,0,
20311,MUHLİS AKARSU PARKI 2,40.82259304,29.38500442,0,,0,
60708,1481. SOKAK,40.78662,29.423597,0,,0,
20202,ÇAYIROVA KÖPRÜSÜ,40.8124455,29.3687922,0,,0,
81200,NİHAN SOKAK TRAFO,40.7737825,29.9412754,0,,0,
20206,FATİH CADDESİ 1,40.81808762,29.37002005,0,,0,
20207,RECEP AKTÜRK PARKI,40.818855,29.367409,0,,0,
81213,ADNAN KAHVECİ CADDESİ 2,40.7888056,29.9688562,0,,0,
60530,1494. SOKAK,40.7784034,29.4239648,0,,0,
20021,151. SOKAK 1,40.8235679,29.3939495,0,,0,
20217,KUŞKONMAZ SOKAK 3,40.85353486,29.39588389,0,,0,
90166,DELİHASANLAR CAMİ,40.9766094,29.9193257,0,,0,
20143,ÇAYIROVA STADI,40.83746852,29.4014861,0,,0,
30297,ÜLKÜN YALÇIN ANADOLU LİSESİ 1,40.784832,29.378227,0,,0,
40142,TÜRKMEN SOKAK,40.76764,29.842022,0,,0,
41025,BAŞİSKELE SELİM YÜREKTEN MESLEKİ VE TEKNİK ANADOLU LİSESİ,40.745716,29.964094,0,,0,
30305,NENE HATUN İLKOKULU,40.78026097,29.38519204,0,,0,
41473,2344/1. SOKAK,40.815998,29.379017,0,,0,
30310,DEVA SOKAK 2,40.775196,29.386599,0,,0,
30311,DEVA SOKAK,40.775166,29.386751,0,,0,
30313,YENİDEVİR SOKAK 1,40.77168386,29.38711906,0,,0,
30314,YENİDEVİR SOKAK 2,40.77179375,29.38701087,0,,0,
30315,EMRAH SOKAK 1,40.77009085,29.38736914,0,,0,
30316,EMRAH SOKAK,40.77017418,29.38748896,0,,0,
30326,OSMAN HAMDİBEY İLKOKULU 1,40.77314,29.385244,0,,0,
30327,DAMAR SOKAK,40.774475,29.383652,0,,0,
30329,AKÇAKOCA SOKAK 1,40.77550223,29.38365734,0,,0,
12099,TÜRGEV YÜKSEK ÖĞRETİM KIZ ÖĞRENCİ YURDU,40.7994268,29.9301595,0,,0,
10421,SERİM SOKAK 1,40.6913763,29.9196609,0,,0,
10477,MECİDİYE İSTİKLAL,40.8677141,30.1693748,0,,0,
81167,KARAÇAY SOKAK,40.7838434,29.9279965,0,,0,
10411,KUŞBURNU SOKAK,40.69796311,29.96045536,0,,0,
10534,NURİPAŞA CADDESİ 1,40.7050897,29.9857029,0,,0,
10413,BAHÇECİK KÜLTÜR MERKEZİ 1,40.674587,29.910954,0,,0,
10697,ORTABURUN MERKEZ,40.790493,30.200466,0,,0,
10416,YENİKÖY SAPAĞI 1,40.69974074,29.90463285,0,,0,
10910,TATLIKUYU KAPALI PAZAR 1,40.79070168,29.44207728,0,,0,
10914,DİLİSKELESİ DEPOLAMA ALANI,40.773724,29.520731,0,,0,
10918,SOMA MADEN ŞEHİTLERİ CADDESİ,40.79859,29.403034,0,,0,
10919,DURMUŞ SOKAK 1,40.78257633,29.37317401,0,,0,
20145,AKSE PARKI,40.83620303,29.40171874,0,,0,
20147,AKSE MERKEZ 1,40.83426,29.401104,0,,0,
20148,AKSE MERKEZ,40.83436169,29.40077522,0,,0,
20151,ABDURRAHMAN KORHAN CADDESİ,40.828266,29.3719153,0,,0,
20153,MEHMET AKİF ERSOY CADDESİ 1,40.82879888,29.37888478,0,,0,
20155,ÇAYIROVA BELEDİYESİ,40.82847175,29.38023145,0,,0,
60639,4439. SOKAK,40.873683,29.4757035,0,,0,
30081,DARICA MERKEZ 1,40.7598784,29.3862908,0,,0,
60681,KENTÖNÜ,40.822763,29.353048,0,,0,
70016,KARACAOĞLAN CADDESİ,40.697914,29.855404,0,,0,
20167,ATATÜRK ORTAOKULU 2,40.83809298,29.38381174,0,,0,
70055,YAZLIK MUSA HOCA SOKAK,40.6937584,29.8708203,0,,0,
20172,YUNUS ERGÜZ İLKOKULU,40.8357846,29.3799156,0,,0,
30075,İLKE SİTESİ 1,40.76338,29.390905,0,,0,
30076,İLKE SİTESİ,40.76332022,29.39103019,0,,0,
30078,CUMHURIYET MEYDANI,40.7624324,29.38934928,0,,0,
96679,KARANİ SOKAK,40.6999294,30.1335105,0,,0,
30085,DARICA ZİRAAT BANKASI,40.75897292,29.38413257,0,,0,
30087,DARICA KOMEK,40.75793639,29.381053,0,,0,
30088,DARICA KOMEK,40.75825168,29.38171177,0,,0,
30092,KALE PARK,40.75748087,29.38452294,0,,0,
30095,BAYRAKTEPE SEVGİ PARKI,40.75516636,29.387245,0,,0,
30182,İLBEYİ SOKAK,40.7932478,29.36322987,0,,0,
30183,İLBEYİ SOKAK 1,40.79331234,29.36332481,0,,0,
30186,AHMET RASİM CADDESİ 1,40.79242451,29.36737798,0,,0,
30187,AHMET RASİM CADDESİ,40.792507,29.367407,0,,0,
30199,SOYALAN SOKAK,40.79482456,29.37584671,0,,0,
30200,SOYALAN SOKAK 1,40.79481,29.37604,0,,0,
11251,ARITMA YOLU CADDESİ,40.714546,29.980469,0,,0,
11255,347. SOKAK,40.8327032,29.3718203,0,,0,
70001,KARAKÖPRÜ ATATÜRK BULVARI,40.7056786,29.8605689,0,,0,
90084,SUCU ALİ SAPAĞI 1,40.985442,30.108617,0,,0,
11397,MERSİNCİK MAHALLESİ KARDELEN SİTESİ 1,40.773526,29.849408,0,,0,
10963,AKŞEMSETTİN CAMİ,40.78019236,29.41997561,0,,0,
10964,HUKUKÇULAR SİTESİ,40.7750803,29.52179305,0,,0,
10977,TEZLER SOKAK 1,40.76502,29.832624,0,,0,
10981,TERZİBAYIRI MUHTARLIĞI,40.769978,29.931725,0,,0,
10982,SEYİD CADDESİ,40.73804871,29.96357999,0,,0,
10986,DOĞANTEPE VATAN CADDESİ,40.70647582,30.00308007,0,,0,
10987,HALİDE EDİP ADIVAR,40.792126,29.965141,0,,0,
10988,HALİDE EDİP ADIVAR 1,40.792454,29.965672,0,,0,
10989,İZNİK CADDESİ,40.671703,29.917873,0,,0,
10768,AVNİ KALKAVAN STADI 1,40.761797,29.891711,0,,0,
40375,EMEL SOKAK 3,40.6972857,29.8915909,0,,0,
11001,OTOGAR,40.776242,29.97576606,0,,0,
11003,YENİŞEHİR,40.76771607,29.9667132,0,,0,
11005,DOĞU KIŞLA,40.766423,29.951108,0,,0,
11006,MİLLİ İRADE MEYDANI,40.76546385,29.94030321,0,,0,
30099,BAHÇELİEVLER,40.75598015,29.38762937,0,,0,
30101,BAYIR SOKAK,40.758106,29.386366,0,,0,
60719,560/1. SOKAK,40.7939131,29.3946148,0,,0,
30112,ŞİŞE CAM YOLU 1,40.8051466,29.36759752,0,,0,
60858,2746. SOKAK,40.82728,29.4690426,0,,0,
30115,MİTHATPAŞA CADDESİ 1,40.80136267,29.36760665,0,,0,
30121,CENGAVER SOKAK,40.79752,29.36815,0,,0,
30122,CENGAVER SOKAK 1,40.7976354,29.36836834,0,,0,
30125,DENİZ YILDIZLARI ORTAOKULU 2,40.79514082,29.36859301,0,,0,
30126,DENİZ YILDIZLARI ORTAOKULU 3,40.795498,29.368305,0,,0,
30127,ERCİVAN SOKAK 1,40.79357776,29.36833696,0,,0,
30128,ERCIVAN SOKAK,40.79344049,29.36807201,0,,0,
30129,HAKKANİYET SOKAK 1,40.79221955,29.36761879,0,,0,
30136,MUKADDER SOKAK 1,40.78769189,29.36078966,0,,0,
30137,MUKADDER SOKAK 2,40.787594,29.360815,0,,0,
30138,ESKİ PTT,40.7868895,29.35752172,0,,0,
30139,ESKİ PTT 1,40.78690936,29.35786829,0,,0,
30140,DÜMEN SOKAK 1,40.78639681,29.35570415,0,,0,
30141,DÜMEN SOKAK,40.78651105,29.35576585,0,,0,
30142,FARUK YALÇIN CADDESİ,40.786137,29.353613,0,,0,
30143,FARUK YALÇIN CADDESİ 1,40.786217,29.35314,0,,0,
30146,EMEKLİ SANDIĞI,40.7860029,29.35003299,0,,0,
30147,EMEKLİ SANDIĞI 1,40.7859041,29.34999461,0,,0,
70420,GÖLCÜK PERVANE,40.716846,29.818645,0,,0,
30151,ADA SOKAK 2,40.79496721,29.35584752,0,,0,
30152,BAYRAMOĞLU KADINLAR PLAJI 1,40.78415134,29.35002453,0,,0,
30153,BAYRAMOĞLU KADINLAR PLAJI,40.78407491,29.35016331,0,,0,
11007,FUAR,40.76234951,29.93659996,0,,0,
11008,YENİ CUMA,40.76224198,29.93210029,0,,0,
11009,FEVZİYE,40.76216666,29.92566148,0,,0,
11010,TREN GARI,40.7623563,29.91861526,0,,0,
11011,SEKA PARK,40.76133208,29.91089154,0,,0,
10736,KAYNARCA MUHTARLIĞI,40.886177,29.98113,0,,0,
10738,AKMEŞE YENİCE 2,40.88327961,30.24827421,0,,0,
10928,1855/2. SOKAK,40.7799063,29.4368834,0,,0,
10740,MECİDİYE,40.87519,30.150362,0,,0,
60217,2005. SOKAK,40.8021597,29.3940231,0,,0,
10744,SARIGAZİ 1,40.975185,30.257725,0,,0,
10746,ABİŞ SOKAK,40.67535,29.8893,0,,0,
10748,KETENCİLER CEVİZLİK MEVKİİ,40.76634727,30.1368958,0,,0,
10749,HAKKANİYE ORTAOKULU,40.895844,29.982668,0,,0,
10753,SERİNDERE MERKEZ,40.63769,30.006626,0,,0,
10754,LÜTFİYE 4,40.660755,29.762743,0,,0,
20314,YAVUZ SELİM CADDESİ 2,40.8127312,29.3715209,0,,0,
10758,KARTEPE SULTANİYE 1,40.606945,30.092897,0,,0,
11025,AKPINAR TOKİ A 1 BLOK,40.79266,29.867788,0,,0,
40136,HACI ARİF  CADDESİ 1,40.7316813,30.1348662,0,,0,
30415,BARBAROS İLKOKULU,40.788919,29.389883,0,,0,
10763,KURTDERE İSLAMKÖY SAPAĞI,40.79067,30.17283,0,,0,
10765,SERVETİYE MERKEZ,40.626595,29.93759,0,,0,
10766,SELİMİYE KÖYÜ 2,40.67683,29.80532,0,,0,
10767,SOFULAR 3,40.641018,29.710081,0,,0,
10769,OLUKLU MEZARLIK ALTI,40.675705,29.58009,0,,0,
10878,HAYRİ MACAR CADDESİ,40.778293,29.43304921,0,,0,
20179,336. SOKAK 1,40.8362044,29.3749973,0,,0,
30154,KEVSER SOKAK 1,40.782608,29.35064,0,,0,
30155,ADA SOKAK 1,40.79469054,29.35580891,0,,0,
30156,BAYRAMOĞLU HALK PLAJI,40.78031268,29.35145041,0,,0,
30157,BAYRAMOĞLU HALK PLAJI 1,40.78031824,29.35156609,0,,0,
30158,ENGİNSU SOKAK 1,40.77801325,29.35239913,0,,0,
30159,ENGİNSU SOKAK,40.77795839,29.35254961,0,,0,
30160,CERRAH SOKAK,40.7769,29.353024,0,,0,
20325,DİLOVASI KAYMAKAMLIK,40.7957151,29.55181429,0,,0,
41087,ŞEHİT TURGUT ÇİÇEK CADDESİ 1,40.75641,30.023577,0,,0,
60569,ATATÜRK BULVARI 3,40.8376958,29.4447433,0,,0,
10887,1802. SOKAK,40.7916068,29.4514545,0,,0,
30022,AYAZMA SOKAK 1,40.77404535,29.41070722,0,,0,
30023,AYAZMA SOKAK,40.77393351,29.41073289,0,,0,
98153,KİRAZLIYALI MUHTARLIĞI 1,40.7779342,29.7006834,0,,0,
10179,20. ADA,40.6983437,29.952379,0,,0,
30028,FARABİ DEVLET HASTANESİ ACİL GİRİŞİ 1,40.77148242,29.40429457,0,,0,
30032,YEŞİL DARICA SİTESİ 1,40.77045785,29.40030443,0,,0,
30033,YEŞİL DARICA SİTESİ,40.77035349,29.40041469,0,,0,
30034,NAMZET SOKAK 1,40.7698061,29.39869906,0,,0,
30040,ALİYE SOKAK,40.77095932,29.40099026,0,,0,
30041,ZÜMER SOKAK,40.77425,29.399353,0,,0,
30042,MERCAN SOKAK,40.77248936,29.39947182,0,,0,
30043,MERCAN SOKAK 1,40.77257,29.399723,0,,0,
30044,HASBAHÇE ÇINAR PARKI,40.77400113,29.40142558,0,,0,
30045,HASBAHÇE ÇINAR PARKI 1,40.77404357,29.40123904,0,,0,
30048,ORUÇ REİS CADDESİ,40.77567048,29.40319179,0,,0,
30049,ORUÇ REİS CADDESİ 1,40.775597,29.40292,0,,0,
90183,GEBEŞLER PAŞAOĞLU MEVKİİ,41.008597,29.99371,0,,0,
10886,HUKUKÇULAR SİTESİ 1,40.77515657,29.52198687,0,,0,
90217,ÇERKEŞLİ CAMİ,40.907531,30.127587,0,,0,
90248,DÖNGELLİ CAMİ,41.002415,30.166403,0,,0,
10891,SAYGIN CADDESİ,40.7787629,29.52062062,0,,0,
94063,DEREKÖY AİLE SAĞLIĞI MERKEZİ,40.6807784,29.555978,0,,0,
10896,BAHAR CADDESİ 1,40.8067,29.438677,0,,0,
10897,SOMA MADEN ŞEHİTLERİ CADDESİ 1,40.79832959,29.40305163,0,,0,
10898,YEŞİLIRMAK CADDESİ,40.783195,29.529509,0,,0,
98359,İLİMTEPE 12. ADA 1,40.8041125,29.7590816,0,,0,
81159,BUCAK SOKAK,40.795509,29.958365,0,,0,
98080,İLİMTEPE 14. ADA 2,40.8029254,29.7604863,0,,0,
90297,BOZBURUN MERKEZ MEVKİİ,41.0190176,30.221495,0,,0,
11074,RÜYA SOKAK,40.703087,29.954603,0,,0,
11115,EKİN SOKAK 1,40.9085721,30.2223677,0,,0,
80869,BATI TERMİNALİ ÇIKIŞ,40.763187,29.912706,0,,0,
11393,MERSİNCİK PARKI 1,40.7710862,29.8561406,0,,0,
90134,BAĞIRGANLI 2,41.131863,30.014714,0,,0,
41787,CEMRE SOKAK 3,40.775593,29.945362,0,,0,
10123,HAVUZLU BAHÇE,40.7016264,29.9423944,0,,0,
40306,ÖYKÜ SOKAK 1,40.779212,29.809924,0,,0,
70360,NÜZHETİYE ÜÇYOL,40.6363347,29.8648955,0,,0,
42200,DERE PAZARI SOKAK,40.7013553,29.9321781,0,,0,
60024,TERMİNAL KAVŞAĞI,40.7969581,29.4607771,0,,0,
41902,ÖZ KAHRAMAN SOKAK,40.769609,29.933786,0,,0,
42158,ÖZKAHRAMAN SOKAK 1,40.76951,29.933699,0,,0,
80932,ŞEREF MEYDANI 1,40.774498,29.936766,0,,0,
96089,İBRİKDERE DÖRTYOL 1,40.738026,30.117434,0,,0,
94208,KIZDERBENT MERKEZ,40.551947,29.518403,0,,0,
90476,KIRKARMUT YAĞCILAR CAMİ 1,40.98011,30.135717,0,,0,
94206,KIZDERBET İLKOKULU 1,40.556185,29.514209,0,,0,
96390,KESTANELİK ÜÇYOL 1,40.68963766,30.0714406,0,,0,
11294,HAYRİYE CAMİ 1,40.6348567,29.5737261,0,,0,
96393,SUADİYE BARBAROS İLKOKULU,40.69290673,30.06185213,0,,0,
80142,ÇAYIR SOKAK 2,40.7669154,29.8962321,0,,0,
96397,ARSLANBEY ÜÇYOL 1,40.69340791,30.04912791,0,,0,
80163,METEOROLOJİ GÖZLEM YERİ 1,40.766562,29.917704,0,,0,
80134,ŞİRİNTEPE SAHA 1,40.76016365,29.86563755,0,,0,
80165,TURGUT CAMİ,40.7705072,29.9167599,0,,0,
80137,TUNÇ SOKAK,40.7649444,29.89295842,0,,0,
20262,ÇAĞRI SOKAK 1,40.8458198,29.3804455,0,,0,
94232,KARAPINAR CAMİ,40.6662467,29.6111152,0,,0,
80538,KARAABDÜLBAKİ MEYDAN 1,40.796028,30.154911,0,,0,
70407,NÜZHETİYE 2,40.643114,29.8678,0,,0,
70547,NÜZHETİYE 3,40.643112,29.867852,0,,0,
40262,KAŞIKÇI KAYALAR MEVKİİ,40.8717865,29.8662851,0,,0,
40021,ENGİN CADDESİ 3,40.7706561,29.826469,0,,0,
80922,SOLAKLAR İLKOKULU 1,40.79522,30.0417,0,,0,
60730,ANİBAL CADDESİ,40.7933874,29.4454534,0,,0,
10215,HACI MAHMUT AĞA,40.7232801,29.9913907,0,,0,
80964,HACI ARİF CADDESİ,40.767483,29.908178,0,,0,
90272,KAYMAZ KÜÇÜK HASANLI SAPAĞI 1,40.930704,30.25768,0,,0,
90499,KAYMAZ KÜÇÜK HASANLI SAPAĞI,40.930717,30.257658,0,,0,
94130,KARAMÜRSEL DEVLET HASTANESİ,40.684242,29.589119,0,,0,
96545,GÖKÇEN SOKAK 2,40.748635,30.066395,0,,0,
11414,HARMAN SOKAK 1,40.845711,29.5535112,0,,0,
80318,ŞEREF MEYDANI,40.774478,29.936843,0,,0,
40310,VEHBİ DEMİREL SOKAK,40.7719513,29.9034053,0,,0,
40277,YENİKENT NEŞE SOKAK,40.7787377,29.8130699,0,,0,
81223,BAYRAKTAR SOKAK,40.7692385,29.9035257,0,,0,
80143,SERDAR BAYIRI 4,40.76868,29.899395,0,,0,
40318,VEHBİ DEMİREL SOKAK 2,40.7710543,29.9044557,0,,0,
41040,VALİ İHSAN DEDE İLKOKULU 1,40.744888,29.961584,0,,0,
40350,AVLUBURUN AİLE SAĞLIĞI MERKEZİ,40.7715687,30.1996023,0,,0,
40102,NİLGÜN SOKAK,40.754047,29.828789,0,,0,
30067,1551. SOKAK,40.7814184,29.411044,0,,0,
96542,ALTUN SOKAK,40.7462374,30.0604867,0,,0,
80150,AĞAKÖY MERKEZ 1,40.77996529,29.89824614,0,,0,
80151,ARIZLI YOLU,40.79670276,29.90789114,0,,0,
96398,ARSLANBEY DEĞİRMEN,40.691957,30.043602,0,,0,
94005,EREĞLİ MERKEZ,40.70106236,29.66218614,0,,0,
94006,EREĞLİ MERKEZ 1,40.70084664,29.66228456,0,,0,
70367,GÖLCÜK HALK EĞİTİM MERKEZİ 1,40.71522,29.83962,0,,0,
60038,KİRAZPINAR İLKOKULU,40.818405,29.462463,0,,0,
94012,KARAMÜRSEL SANAYİ,40.694195,29.627459,0,,0,
10575,PINARTAŞ SOKAK,40.7116383,29.9342427,0,,0,
94014,ALINTERİ SOKAK,40.69437505,29.64764617,0,,0,
10596,HERGELECİ İBRAHİM SPOR SALONU,40.7277881,30.0362059,0,,0,
96289,GAZOZ 1,40.752849,30.028458,0,,0,
98199,KIŞLADÜZÜ MERDİVEN 1,40.78458206,29.62627555,0,,0,
98200,KIŞLADÜZÜ MERDİVEN,40.7847352,29.62636918,0,,0,
98201,KIŞLADÜZÜ MUHTARLIĞI 1,40.78221246,29.6307151,0,,0,
98205,KIŞLADÜZÜ KAHVELER 1,40.78134892,29.63424748,0,,0,
98206,KIŞLADÜZÜ KAHVELER,40.781464,29.634306,0,,0,
98207,KIŞLADÜZÜ İLKOKULU 1,40.782223,29.635866,0,,0,
20241,KAMER SOKAK 3,40.8527026,29.3992781,0,,0,
11064,HEREKE UZUNPINAR İLKOKULU,40.8123065,29.6601922,0,,0,
60189,MEVLANA CAMİ 1,40.8071483,29.3877545,0,,0,
96725,SARIMEŞE OTOBAN KÖPRÜSÜ,40.735704,30.0472627,0,,0,
80379,GÜNEY TERMİNALİ,40.740681,29.941668,0,,0,
80157,BORA SOKAK 1,40.7657945,29.8560922,0,,0,
90524,KIRLANGIÇ SOKAK 2,40.786369,29.9376404,0,,0,
96211,MEVLANA SOKAK,40.741372,30.014017,0,,0,
96213,ZEBRA SOKAK,40.741382,30.011224,0,,0,
99011,ESENYALI,40.855804,29.2912942,0,,0,
98219,17 AĞUSTOS KALICI KONUTLAR 1,40.79196,29.642828,0,,0,
98220,17 AĞUSTOS KALICI KONUTLAR,40.79207462,29.64279407,0,,0,
94117,100. YIL 1,40.6896154,29.6017869,0,,0,
60827,1001. SOKAK,40.8086989,29.4406247,0,,0,
98233,ORTANCA SOKAK,40.79588,29.64597,0,,0,
80224,BAYINDIRLIK İŞ MERKEZİ 3,40.8005823,29.9522078,0,,0,
70352,GAZİ OSMAN PAŞA CADDESİ,40.713856,29.808187,0,,0,
98244,ÖĞRETMEN SOKAK,40.803734,29.646336,0,,0,
98248,YOKUŞYOLU SOKAK,40.80655,29.651443,0,,0,
98249,BARIŞÇI SOKAK,40.80647742,29.65160217,0,,0,
98250,VADİLER  SOKAK,40.80649251,29.65544688,0,,0,
98252,CİHANGİR SOKAK,40.78384336,29.62931104,0,,0,
98254,KOOPERATİFLER CADDESİ 2,40.7848843,29.62710546,0,,0,
98255,KOOPERATİFLER CADDESİ 1,40.78501151,29.62711704,0,,0,
98256,KOOPERATİFLER CADDESİ 4,40.78601,29.625994,0,,0,
30227,KETENCİLER SOKAK,40.7800452,29.3752254,0,,0,
10343,DOĞANTEPE CAMİ 1,40.699589,29.997724,0,,0,
50103,TAVŞANCIL TESİSLER D 100,40.7748597,29.5497079,0,,0,
96670,MAŞUKİYE KURS MERKEZİ,40.701756,30.13977,0,,0,
96742,AVLUBURUN MUHTARLIĞI 1,40.772366,30.201347,0,,0,
70480,DÜZAĞAÇ PAZAR YERİ 1,40.7001189,29.8198233,0,,0,
30245,BAYRAMOĞLU MAHALLE MUHTARLIĞI,40.7879673,29.3643726,0,,0,
41483,CUMHURİYET MAHALLE MUHTARLIĞI,40.8147753,29.3842488,0,,0,
80238,TÜPRAŞ SİTESİ 1,40.768544,29.909298,0,,0,
80812,BAĞLICA 3,40.9093332,30.1960211,0,,0,
98259,KOOPERATİFLER CADDESİ 5,40.78708226,29.62477261,0,,0,
80065,SEKBANLI ÇIKIŞ,40.8174914,29.9436945,0,,0,
98263,MEŞE SOKAK 1,40.79024573,29.61812276,0,,0,
98264,MEŞE SOKAK,40.79047627,29.61806238,0,,0,
60043,EMLAK KONUT 5,40.8262287,29.4764159,0,,0,
80664,BAYINDIRLIK 5. ADA 1,40.802021,29.9587394,0,,0,
11299,TURGUT ÇOCUK BAHÇESİ,40.7758706,29.9205383,0,,0,
80645,ŞEHİT ÖZCAN KAN FENLİSESİ 4,40.802984,29.953125,0,,0,
98283,ALT GEÇİT 2,40.77087409,29.76331229,0,,0,
98285,KÖRFEZ ÜST GEÇİT,40.77257926,29.75836404,0,,0,
98286,HIZIR REİS CADDESİ 1,40.77338698,29.75049171,0,,0,
98287,HİLAL SİTESİ,40.77319216,29.7524219,0,,0,
11331,338. SOKAK,40.70745,29.817337,0,,0,
98290,YARIMCA ORTAOKULU,40.77456904,29.73774792,0,,0,
11395,ÇERMİK SOKAK,40.769008,29.8503738,0,,0,
98296,BELEN KÖYÜ,40.81461966,29.75366713,0,,0,
98300,SİPAHİLER 1,40.85990443,29.78887618,0,,0,
30027,DARICA AĞIZ VE DİŞ SAĞLIĞI MERKEZİ,40.7726605,29.407849,0,,0,
98304,HİMMETLİ ORUÇLAR,40.87463844,29.83273029,0,,0,
98308,HİMMETLİ MERKEZ,40.89898186,29.83210603,0,,0,
11076,DELİVELİ SAPAĞI 1,40.973542,30.004622,0,,0,
11158,KAŞIKÇI FAKILAR SAPAĞI,40.8718927,29.8664322,0,,0,
80307,MUHAMMER AKSOY İLKOKULU,40.7800904,29.9337744,0,,0,
81013,SEPETCİ SAPAĞI 3,40.79938,29.983053,0,,0,
96665,KESTANELİK ÜÇYOL 2,40.689561,30.071316,0,,0,
10579,OSMAN ŞENOL CADDESİ 1,40.7095004,29.8705741,0,,0,
90760,MESKEN SOKAK 2,40.8098632,29.6514842,0,,0,
94190,OLUKLU MERKEZ 1,40.666386,29.576302,0,,0,
70066,GÖLCÜK İLÇE EMNİYET MÜDÜRLÜĞÜ 1,40.706287,29.845196,0,,0,
80737,BESTE SOKAK 1,40.768006,29.858701,0,,0,
96238,İREM SOKAK,40.7342674,30.0139165,0,,0,
81195,ORHANİYE MERKEZ MEVKİİ,40.8606299,30.0697408,0,,0,
41464,ADALET SOKAK,40.7607429,29.8806068,0,,0,
80666,BAYINDIRLIK 2. ADA,40.8007115,29.9555553,0,,0,
98018,TUĞRUL CADDESİ 3,40.7591522,29.78582114,0,,0,
41399,TAN SOKAK,40.755306,29.956323,0,,0,
99025,FARABİ CADDESİ 1,40.781648,29.5426305,0,,0,
98033,KÖRFEZ YANYOL 1,40.75913713,29.79325694,0,,0,
98336,GÜVERCİN SOKAK 1,40.754257,29.781107,0,,0,
98339,ORUÇ REİS ANADOLU LİSESİ 1,40.75321645,29.78112576,0,,0,
41713,DİLOVASI DİCLE CADDESİ,40.7782999,29.5391724,0,,0,
10439,YENİKÖY ATAKENT 8/1,40.706934,29.887835,0,,0,
41377,FINDIK SOKAK 1,40.7889659,29.5681939,0,,0,
80996,TÜRK PİRELLİ ORTAOKULU 1,40.7604079,29.951245,0,,0,
94015,KARABAŞ SOKAK 1,40.6930663,29.6479755,0,,0,
81005,OKŞAN SOKAK 1,40.7795463,29.9652594,0,,0,
81194,NAMIK KEMAL CADDESİ 2,40.76919,29.910604,0,,0,
80486,ESKİOGLU SOKAK,40.7897354,30.0022037,0,,0,
80840,ÜÇGAZİ YOLU,40.857447,29.966524,0,,0,
81055,ÜÇGAZİ YOLU 1,40.857534,29.966603,0,,0,
90046,SÜLLÜ CADDESİ,41.063473,30.161558,0,,0,
11136,FRANSIZ KARDEŞLİK İLKOKULU,40.720837,30.122996,0,,0,
10602,HEREKE VAPUR İSKELESİ,40.7827462,29.6153236,0,,0,
70028,GÖLCÜK TAŞOCAKLARI 3,40.690758,29.86447,0,,0,
10237,SELAHATTİN EYYUBİ CADDESİ 2,40.7145898,29.9379909,0,,0,
98346,ŞİNASİ KUŞ CADDESİ 1,40.7770049,29.71605378,0,,0,
98038,KÖRFEZ ZİRAAT ODASI,40.7632289,29.78229438,0,,0,
70477,SARAYLI CADDESİ,40.702767,29.7952834,0,,0,
80311,DEVRAN CADDESİ 1,40.778903,29.930376,0,,0,
80574,İZMİT ATILIM ANADOLU LİSESİ 1,40.7635369,29.9738803,0,,0,
30421,1626. SOKAK,40.7849248,29.3935913,0,,0,
98051,HAMİT KAPLAN CADDESİ 2,40.76497899,29.80024195,0,,0,
98052,ESENTEPE MUHTARLIĞI,40.76591378,29.79807987,0,,0,
42109,BOSTAN SOKAK 1,40.769731,29.818743,0,,0,
98127,KOCAELİ ÜNİVERSİTESİ YABANCI DİLLER YÜKSEK OKULU KÖRFEZ KAMPÜSÜ 2,40.7763412,29.7344414,0,,0,
30413,1659/1. SOKAK,40.788826,29.387913,0,,0,
70401,MAMURİYE 1,40.639875,29.836407,0,,0,
98355,İLİMTEPE İLKOKULU SAPAĞI 1,40.80341826,29.76675862,0,,0,
98358,İLİMTEPE 2. ETAP 2,40.80228811,29.75837243,0,,0,
98360,İLİMTEPE ÇİFTLİK 1,40.8101919,29.75201986,0,,0,
98362,İLİMTEPE TRAFO,40.810642,29.74773,0,,0,
98364,İLİMTEPE 17 AĞUSTOS İLKOKULU,40.80850231,29.74580639,0,,0,
98365,KÖRFEZ TREN İSTASYONU 1,40.77314248,29.73054819,0,,0,
11461,HACIŞEYH SAPAĞI 1,40.995207,30.022806,0,,0,
70577,AKYÜZLER CAMİ 1,40.708668,29.790186,0,,0,
98056,KÖRFEZ ATATÜRK ORTAOKULU,40.76714499,29.79045109,0,,0,
11297,BEYCE SAPAĞI 1,40.991222,30.063532,0,,0,
94230,KARAPINAR TEPE MEVKİİ,40.6657413,29.6182993,0,,0,
96022,HAREM SOKAK,40.7232614,30.0086228,0,,0,
96250,MEVSİM SOKAK 1,40.72975,30.019776,0,,0,
96620,MEVSİM SOKAK,40.729867,30.019817,0,,0,
98002,ÜSTÜNER SOKAK 1,40.7559798,29.795996,0,,0,
94216,İNEBEYLİ 1,40.643598,29.5472911,0,,0,
60040,EMLAK KONUT 4,40.8281189,29.4790245,0,,0,
80841,KAYNARCA MERKEZ,40.884525,29.978804,0,,0,
94113,RAUF DENKTAŞ BULVARI 1,40.6898883,29.6079772,0,,0,
94108,SARIKUM CADDESİ,40.6910392,29.6194777,0,,0,
94080,İNEBEYLİ TAŞAĞIL,40.64297,29.516397,0,,0,
94048,PLAJ YOLU CADDESİ 2,40.695924,29.621769,0,,0,
20227,MESCİD-İ AKSA CAMİ,40.829559,29.3781423,2,,0,
98062,ÇAMLITEPE MERKEZ 1,40.77477943,29.7756068,0,,0,
41103,TOPBAŞ SOKAK 1,40.7319747,30.0159246,0,,0,
81340,685. SOKAK 1,40.6983568,29.8210934,0,,0,
81341,HURİPAŞA CADDESİ,40.7076941,29.9827052,0,,0,
81342,HURİPAŞA CADDESİ 1,40.7076301,29.9827276,0,,0,
98372,BAĞDAT CADDESİ 2,40.77640728,29.73173649,0,,0,
98373,BAĞDAT CADDESİ 1,40.77579712,29.74484232,0,,0,
70146,AK SOKAK 1,40.711638,29.786597,0,,0,
98375,HAMİT KAPLAN CADDESİ 1,40.76482855,29.80010727,0,,0,
98376,ABDULHAMİD HAN CADDESİ 2,40.75895157,29.79763681,0,,0,
98378,ÇİMENLİ SOKAK,40.76577555,29.79799502,0,,0,
98274,SERAMİK 1,40.766833,29.759164,0,,0,
20323,FIRIN SOKAK,40.7549813,29.3896091,0,,0,
60720,GEPOSB 5. CADDE,40.8370689,29.4475627,0,,0,
94240,BALABAN MEVKİ,40.681508,29.685618,0,,0,
10883,SAKALLIOĞLU SAPAĞI,41.1285497,30.314646,0,,0,
98077,İLİMTEPE İLKOKULU SAPAĞI,40.803032,29.766932,0,,0,
11448,USTA SOKAK,40.7623843,29.808087,0,,0,
20053,AKSE MEZARLIĞI,40.8285758,29.4003712,0,,0,
98084,İLİMTEPE ÇİFTLİK,40.81009659,29.7519257,0,,0,
98085,BELEN KÖYÜ SAPAĞI 1,40.81290682,29.75059971,0,,0,
98086,İLİMTEPE TRAFO 1,40.810528,29.747862,0,,0,
98088,İLİMTEPE 17 AĞUSTOS ORTAOKULU,40.80841098,29.74593906,0,,0,
98092,İLİMTEPE 125. SOKAK 1,40.8044918,29.74682556,0,,0,
98093,İLİMTEPE 125. SOKAK,40.80593302,29.74681094,0,,0,
20116,PALMİYE SİTESİ,40.8338215,29.4150381,0,,0,
20216,HANIMELİ SOKAK 1,40.8560171,29.3925293,0,,0,
30065,1554. SOKAK,40.7797984,29.4129443,0,,0,
60418,YUNUS EMRE PARKI 1,40.7923529,29.4267479,0,,0,
80291,29 EKİM ORTAOKULU,40.790193,29.948,0,,0,
10903,1726. SOKAK,40.816788,29.416887,0,,0,
60798,3. ETAP 6471/4 - 1,40.8242436,29.4623838,0,,0,
70507,DÖRTYOL CAMİ,40.717422,29.783047,0,,0,
96629,AKINTÜRK SOKAK 1,40.7525698,30.0380567,0,,0,
98054,ÇENEDAĞ CADDESİ,40.7665903,29.7943051,0,,0,
40165,GÜLŞEN GÜLBAŞ SOKAK,40.762698,29.8798324,0,,0,
70039,YAZLIK GELİNCİK SOKAK,40.7027143,29.8682261,0,,0,
10729,HASANCIKLAR,40.805065,30.201235,0,,0,
41211,LOJMAN SOKAK,40.762465,29.811291,0,,0,
96361,DOĞUKAN CADDESİ 1,40.700146,30.11526,0,,0,
10503,ÜĞÜMCE KÖYÜ GİRİŞ,40.9581894,30.0520275,0,,0,
11219,PİRAHMETLER,40.948839,30.049635,0,,0,
60090,1097/2. SOKAK,40.8153949,29.4492144,0,,0,
30084,DARICA ZİRAAT BANKASI 1,40.7587924,29.3837451,0,,0,
70476,DÜZAĞAÇ PAZAR YERİ,40.699883,29.81903,0,,0,
70339,DÜZAĞAÇ İŞ MERKEZİ 1,40.70123,29.816463,0,,0,
70475,DÜZAĞAÇ İŞ MERKEZİ,40.701126,29.81643,0,,0,
94075,KARAAHMETLİ MEYDAN 1,40.654209,29.572807,0,,0,
96169,MAŞUKİYE SUKENT,40.7011244,30.1489612,0,,0,
98398,DEREKÖYÜ,40.84165799,29.77211066,0,,0,
96234,BARBAROS HAYRETTİN CADDESİ 1,40.737087,30.01134,0,,0,
98400,BELEN KÖYÜ 1,40.81461948,29.75349898,0,,0,
41742,KARANFİL SOKAK,40.781273,29.98603,0,,0,
96430,KARATEPE ADALI SOKAK,40.6864998,30.0142782,0,,0,
10808,ORMANYA YOLU,40.7340943,30.1527012,0,,0,
10809,ORMANYA YOLU 1,40.7339716,30.1526543,0,,0,
96663,HASTANE SOKAK,40.695036,30.053431,0,,0,
40418,ÇEPNİ MUHTARLIK 1,40.6927031,30.0522538,0,,0,
60591,ŞEHABETTİN BİLGİSU CADDESİ 1,40.8510191,29.4304984,0,,0,
60255,ORHANGAZİ YEŞİL CAMİ,40.8039788,29.3955868,0,,0,
60081,GOSB TEMBELOVA 3,40.8251547,29.4508185,0,,0,
98104,HADİSE EVYAP İLKOKULU 1,40.77340236,29.76022553,0,,0,
98105,HADİSE EVYAP İLKOKULU,40.77329415,29.76010855,0,,0,
98106,KARDEŞ SOKAK,40.77379493,29.75798517,0,,0,
11364,KARATEPE KÖYÜ 1,40.6893634,30.0113439,0,,0,
11102,BOŞNAKLAR,40.9097918,30.1134385,0,,0,
60676,ADLİYE CADDESİ,40.7955768,29.4325299,0,,0,
90443,İNCECİK SOFULAR MEVKİİ 1,41.0017604,30.204224,0,,0,
30325,OSMAN HAMDİBEY İLKOKULU 2,40.7728779,29.3859466,0,,0,
20228,KAMER SOKAK 2,40.8526707,29.3986569,0,,0,
41446,66. SOKAK,40.76893,29.872316,0,,0,
30051,BALKAN SOKAK 1,40.7781986,29.4091395,0,,0,
50028,DİLOVASI BELEDİYESİ 1,40.7854658,29.5403603,0,,0,
70408,HASANEYN,40.662709,29.855894,0,,0,
10008,KARŞIYAKA MUHTARLIĞI,40.7131092,29.8920872,0,,0,
41253,ÇATAL ÇEŞME CADDESİ 1,40.7804749,29.5749181,0,,0,
10871,ŞEREFSUNĞUR DÖLEKLER,40.9666114,30.0095108,0,,0,
96525,MUKADDES SOKAK,40.727627,30.047598,0,,0,
60531,GEBZE POSTANE,40.7903779,29.4272458,0,,0,
99031,YALOVA 1,40.6592687,29.2790311,0,,0,
70418,GÖLCÜK SELİMİYE ÇIKIŞ,40.670845,29.7936,0,,0,
90175,DELİVELİ CAMİ,40.9755624,30.0014573,0,,0,
90180,HATİPLER MEVKİİ 1,40.957707,29.993531,0,,0,
98243,ÖĞRETMEN SOKAK 1,40.803755,29.646167,0,,0,
96079,ARSLANBEY HAYIRSEVENLER CAMİ 1,40.6893983,30.0319402,0,,0,
80928,ESKİ İSTANBUL CADDESİ 1,40.7826116,29.9320934,0,,0,
80950,MENEKŞE SOKAK,40.7765652,29.9897806,0,,0,
98121,LİMAN BAŞKANLIĞI 1,40.77352183,29.73553121,0,,0,
98123,YARIMCA KÜLTÜR MERKEZİ,40.77354826,29.73355931,0,,0,
80607,HOROSAN CADDESİ,40.7757151,29.9779807,0,,0,
98125,KÖRFEZ TREN İSTASYONU,40.77298122,29.73047331,0,,0,
98126,ÜZENGİ SOKAK,40.77596041,29.72791287,0,,0,
10803,SARIMEŞE CADDESİ 1,40.7375399,30.0497148,0,,0,
98129,BAĞDAT CADDESİ 3,40.77627127,29.73141554,0,,0,
98130,ULUS SOKAK 1,40.77603432,29.72963959,0,,0,
98131,DOĞAN CADDESİ,40.776104,29.722448,0,,0,
42197,ÖĞRETMENLER SOKAK,40.7038162,30.1008793,0,,0,
60770,KARGALI KÖYÜ 1,40.9400756,29.6650311,0,,0,
96091,VELİ AKGÜN İLKOKULU 2,40.7362559,30.1172128,0,,0,
96701,VELİ AKGÜN İLKOKULU 1,40.7362328,30.117147,0,,0,
81133,KREDİ YURTLAR KURUMU ALİ FUAT CEBESOY ÖĞRENCİ YURDU,40.7902079,29.9792684,0,,0,
80033,OKYANUS CADDESİ,40.769695,29.982839,0,,0,
94016,TEPEKÖY CAMİ 2,40.688343,29.65816,0,,0,
94059,2269. SOKAK,40.688512,29.576584,0,,0,
80031,OKYANUS CADDESİ 1,40.769774,29.982776,0,,0,
94092,KIZILAĞAÇ MEVKİİ,40.585035,29.529234,0,,0,
80649,SULTANİYE ORTA,40.8351143,30.1444966,0,,0,
70539,AYVAZPINAR 1,40.6328461,29.7531373,0,,0,
60001,SÜLLÜ KÖYÜ,41.0477376,30.1478552,0,,0,
80278,DÜNYA BANKASI,40.7970101,29.9441926,0,,0,
10835,AKDEMİR SOKAK,40.731923,30.031461,0,,0,
70098,ÖMER SEYFETTİN ORTAOKULU,40.696247,29.826246,0,,0,
10657,GÖLCÜK VAPUR İSKELESİ,40.7225942,29.8334105,0,,0,
90656,YAYLAPINARI GİRİŞ,41.1658504,30.23906,0,,0,
90531,KANATLAR SAPAĞI,41.0598048,30.2345815,0,,0,
90660,HİLAL SOKAK 2,41.1650756,30.2446272,0,,0,
11179,HİLAL SOKAK 1,41.164755,30.248285,0,,0,
11180,KOÇLAR SAPAĞI 1,41.164202,30.26507,0,,0,
90199,ŞEREFSUNGUR AYDINLIK 1,40.976078,30.027755,0,,0,
81039,SEPETÇİ YOLU,40.8120262,29.9802307,0,,0,
94189,OLUKLU YUKARI ÇEŞMELER MEVKİİ 1,40.666767,29.580908,0,,0,
81110,KAYNARCA ÇULCULAR,40.888281,29.953455,0,,0,
96226,AKSA SOKAK 1,40.7362928,29.9969114,0,,0,
42203,DERE PAZARI SOKAK 1,40.7014413,29.931986,0,,0,
98312,OSMANLI MERKEZ,40.909121,29.787949,0,,0,
98164,OSMANLI KÖY SAPAĞI,40.9068237,29.7926502,0,,0,
96465,HÜSNÜ EFE CADDESİ 2,40.7515405,30.0231861,0,,0,
80507,ANADOLU OTOYOLU 1,40.775809,29.980879,0,,0,
20082,237. SOKAK,40.8312987,29.3850538,0,,0,
90520,AŞAĞI KURTYERİ SOKAK,41.124416,30.240274,0,,0,
10696,611. SOKAK,40.703242,29.823959,0,,0,
99047,TARÇIN SOKAK,40.777245,29.8936722,0,,0,
99048,239. SOKAK,40.83359173,29.3831869,0,,0,
70190,11. ADA 1,40.698565,29.829364,0,,0,
70195,ŞİRİNKÖY ANAOKULU,40.699703,29.824913,0,,0,
99056,SOLVENTAŞ İLKOKULU,40.78288895,29.54314245,0,,0,
99057,SOLVENTAŞ İLKOKULU  1,40.78309718,29.54310259,0,,0,
20089,483. SOKAK,40.8332287,29.3907603,0,,0,
98157,CABİR TOKER SOKAK,40.777992,29.69738,0,,0,
80373,LUNAPARK,40.7592259,29.9416876,0,,0,
20111,99. SOKAK 1,40.82497,29.414125,0,,0,
98170,ŞİRİNYALI ÜÇ EVLER 1,40.77897984,29.66803033,0,,0,
30393,MAKASBAŞI,40.7856133,29.4049479,0,,0,
60036,2708. SOKAK 1,40.8159118,29.4571397,0,,0,
20244,GELİNCİK SOKAK,40.8575477,29.3895753,0,,0,
60173,32. SOKAK,40.8121781,29.3898691,0,,0,
60197,2149/1. SOKAK 1,40.805482,29.3891109,0,,0,
11014,EĞİTİM KAMPÜSÜ,40.7622211,29.8929104,0,,0,
90355,KURTYERİ ACAR SOKAK,41.153701,30.239654,0,,0,
80045,ÇINARLI CAMİ,40.766723,29.9331675,0,,0,
96312,MANTAR FABRİKASI 1,40.768003,30.057667,0,,0,
80576,İLK ADIM ANAOKULU,40.7631381,29.9758539,0,,0,
90434,BALCI ARIKLAR MEVKİİ 1,41.063631,30.211869,0,,0,
60225,405/1. SOKAK,40.8115622,29.3919047,0,,0,
81128,CAMİ ARKASI SOKAK 1,40.770286,29.918627,0,,0,
60670,DENİZLİ MAHALLESİ ORTAOKULU,40.8919249,29.5332476,0,,0,
90664,ASKERİYE MEVKİ,41.1645488,30.2741775,0,,0,
98175,HEREKE ÇARŞI,40.78466829,29.61844175,0,,0,
90048,KANDIRA CUMHURİYET CADDESİ 1,41.0649498,30.1548045,0,,0,
90357,KUMCAĞIZ CADDESİ,41.158313,30.221248,0,,0,
90092,TOPLUCA KARAKİRAZBAŞI CAMİ 1,40.964677,30.103585,0,,0,
11503,SEPETCİ TOKİ KONUTLARI 5,40.81595,29.981266,0,,0,
98188,TAVŞANCIL ÇİÇEKLİ SOKAK,40.772774,29.586254,0,,0,
30188,DARICA İLÇE SAĞLIK MÜD,40.7911075,29.3593363,0,,0,
96720,KOLAYLI CADDESİ 2,40.696877,30.02472,0,,0,
90339,KARAAĞAÇ HACI ŞÜKRÜ SOKAK,41.154367,30.296896,0,,0,
90541,HACI ŞÜKRÜ CADDESİ 1,41.15929,30.224438,0,,0,
90533,KERPE SAHİL SOKAK,41.149143,30.196205,0,,0,
98184,ZEYTİNLİK DURAĞI,40.787292,29.619884,0,,0,
94110,4 TEMMUZ ÇİFTLİK CADDESİ 1,40.689692,29.615416,0,,0,
96736,BERGÜZAR SOKAK,40.74218096,30.04830172,0,,0,
96737,UZUNBEY KÖYYOLU SOKAK 1,40.77123,30.063719,0,,0,
96746,PAKMAYA ORTAOKULU 1,40.73736502,30.00551474,0,,0,
11013,KONGRE MERKEZİ,40.7617456,29.8973949,0,,0,
20242,KUŞKONMAZ SOKAK,40.853794,29.3958768,0,,0,
11235,DEMOKRASİ CADDESİ 6,40.7428733,30.0222077,0,,0,
11238,DEMOKRASİ CADDESİ 10,40.7396311,30.0172103,0,,0,
81047,SARIŞEYH,40.935191,30.0466304,0,,0,
80422,ŞEHİT KAZIM CADDESİ DURAĞI,40.7698322,29.9583473,0,,0,
20173,ÇAYIROVA FEVZİ ÇAKMAK ANADOLU LİSESİ 1,40.8365475,29.3776428,0,,0,
60237,2140/1. SOKAK,40.8104,29.396631,0,,0,
11045,ATÇILIK YÜKSEK OKULU 1,40.744112,30.024632,0,,0,
30058,İSTASYON KÖPRÜSÜ,40.782334,29.412092,0,,0,
60471,İSTASYON CADDESİ,40.7899739,29.4216289,0,,0,
98075,İLİMTEPE YOLU 3,40.798249,29.770233,0,,0,
80417,MEZARLIK SOKAK 1,40.7929293,30.0578084,0,,0,
60731,ANİBAL CADDESİ 1,40.79344,29.445726,0,,0,
81117,ARIZLI YOLU 1,40.796744,29.907798,0,,0,
70396,İCADİYE YUKARI MEVKİİ,40.64925,29.7995,0,,0,
41807,SARKUYSAN CAMİ 1,40.7980361,29.378145,0,,0,
10723,HASANCIKLAR 3,40.805866,30.20395,0,,0,
90230,KASIMLAR MEVKİİ 2,40.969147,30.134483,0,,0,
90682,TEKSEN İLKOKULU,41.0185496,29.9130794,0,,0,
80892,ÇUBUKLU OSMANİYE 2,40.8581234,30.0439131,0,,0,
90507,KOCAKAYMAZ OCAKLAR,40.931007,30.120377,0,,0,
80784,CİVCİVOGLU,40.8077949,30.1364187,0,,0,
90719,DÜZLER MEVKİİ,40.9946728,30.0507545,0,,0,
90720,DÜZLER MEVKİİ 1,40.9946095,30.0509332,0,,0,
98295,YAYA ALT GEÇİDİ,40.7712123,29.7610747,0,,0,
10391,TINAZTEPE CADDESİ 5,40.703823,29.96203,0,,0,
11150,GÖKÇELER SAPAĞI 1,40.896115,30.016987,0,,0,
11151,NEBİHOCA SAPAĞI 1,40.885533,30.009204,0,,0,
11152,SADIKLAR 2,40.870507,29.988127,0,,0,
70500,BAŞİSKELE CAMİDÜZÜ,40.6572658,29.9824049,0,,0,
70517,ATATÜRK BULVARI ÇİFTLİK DURAĞI 1,40.70772,29.847582,0,,0,
96752,ESKİ DEMİRYOLU CADDESİ,40.74944253,30.02200641,0,,0,
90237,SARICAALİ TAHTACILAR CAMİ,40.946526,30.17379,0,,0,
81272,ARIZLI KÖY YOLU 1,40.7887123,29.9045254,0,,0,
60092,1014/1. SOKAK,40.814053,29.444885,0,,0,
70321,GÖLCÜK BAYINDIRLIK 4,40.70375,29.808264,0,,0,
98008,ESKI FIRIN KÖŞE 1,40.75014426,29.78882349,0,,0,
96505,PLASTİK FABRİKASI,40.7294028,30.0564308,0,,0,
98013,ORUÇ REİS ANADOLU LİSESİ,40.75312555,29.78104653,0,,0,
96231,KÖSEKÖY MERKEZ PARK 3,40.73864,30.003305,0,,0,
11524,UMUTTEPE E KAPISI 1,40.8121683,29.9110942,0,,0,
10364,ÇAM SOKAK 1,40.723674,29.963423,0,,0,
98377,KALEM SOKAK 1,40.7727624,29.7627709,0,,0,
96515,BURGAZ SOKAK,40.73014845,30.04234184,0,,0,
96516,DEDE KORKUT CADDESİ 1,40.73218898,30.04373066,0,,0,
30066,DARICA ESKİHİSAR CADDESİ 1,40.7646214,29.3945936,0,,0,
94185,KREDİ YURTLAR KURUMU GAZANFER BİLGE ÖĞRENCİ YURDU 1,40.6796741,29.5602643,0,,0,
42060,YUKARI HEREKE İLKOKULU 1,40.8007834,29.6412876,0,,0,
96697,309. SOKAK 2,40.7340942,30.15052,0,,0,
98072,İLİMTEPE YOLU 1,40.784641,29.784891,0,,0,
41646,ERMİŞ SOKAK,40.83881,29.369856,0,,0,
41829,ÇİFTLİK CADDESİ 1,40.8274075,29.3649669,0,,0,
10507,YAYLACIK CADDESİ,40.7223346,29.9711616,0,,0,
60773,KARGALI KÖYÜ,40.9530506,29.6696788,0,,0,
90250,YUSUFCA 3,41.0240197,30.1318281,0,,0,
96567,SEKA KAMPI,40.718416,30.158662,0,,0,
60756,1823/1. SOKAK 1,40.7816945,29.4283477,0,,0,
90688,ÇELEBİLER 1,40.9990409,30.238776,0,,0,
70038,BAŞÖGRETMEN CADDESİ 4,40.7025863,29.8714718,0,,0,
90689,KARLI SAPAĞI 1,41.0004677,30.2381031,0,,0,
90687,ÇELEBİLER,40.9994214,30.2390684,0,,0,
60505,ESKİHİSAR CADDESİ 1,40.7715302,29.4288928,0,,0,
40015,DERİNCE YÖRÜKLER MEZARLIĞI 2,40.77447,29.829006,0,,0,
96521,KUTUP SOKAK,40.72946469,30.04104603,0,,0,
10905,TATLIKUYU KAPALI PAZAR,40.790592,29.442383,0,,0,
96530,SARIMEŞE OTOBAN KÖPRÜSÜ 1,40.735638,30.04761,0,,0,
60749,1826. SOKAK,40.782158,29.431765,0,,0,
50024,HİRA NUR CAMİ 1,40.7875498,29.5388991,0,,0,
94044,KARAMÜRSEL ATATÜRK CADDESİ,40.693653,29.61541,0,,0,
94126,BEKİR İLHAMİ FATMA NEDİME CALP İLKOKULU,40.68603,29.591495,0,,0,
80939,ŞEHİT RAFET KARACAN 1,40.7634819,29.9557882,0,,0,
90590,209. CADDE 2,40.688538,29.603339,0,,0,
96549,MUSTAFA ÖZ CADDESİ,40.7498911,30.06598599,0,,0,
96550,MUSTAFA ÖZ CADDESİ 1,40.74981026,30.06614224,0,,0,
96552,HASANPAŞA PARK,40.75125306,30.06466827,0,,0,
96553,HASANPAŞA İLKOKULU,40.75066637,30.06288387,0,,0,
96554,HASANPAŞA ORTAOKULU,40.75076493,30.0628069,0,,0,
41724,MAŞUKİYE MERKEZ,40.7056134,30.1381624,0,,0,
10861,BAHADIR SOKAK,41.17094,30.3367264,0,,0,
10265,KÖRAHMET SOKAK,40.686109,29.960352,0,,0,
10186,AYDINKENT SAPAĞI,40.687372,29.957381,0,,0,
90030,KANDIRA AKÇAKOCA ANADOLU LİSESİ 1,41.067215,30.153784,0,,0,
10926,ÖNDER SOKAK,40.6754424,29.9779168,0,,0,
60560,MOLLA FENARİ MERKEZ 1,40.8875211,29.4936552,0,,0,
10408,IRAK KONUTLARI,40.705997,29.976655,0,,0,
11233,DEMOKRASİ CADDESİ 7,40.7429405,30.0221985,0,,0,
80283,MUALLİM NACİ ANADOLU LİSESİ 1,40.796,29.94567,0,,0,
40105,ÇENESUYU KAŞIK YANYOL 1,40.7610642,29.850315,0,,0,
10953,KESER SOKAK 1,40.7371157,30.0303157,0,,0,
11526,ZEYTİNBURNU MOLLAOĞLU 1,40.8125969,30.1259113,0,,0,
11527,ZEYTİNBURNU MOLLAOĞLU 2,40.8104491,30.126077,0,,0,
90568,SEYİTALİLER ORTAOKULU,40.9735462,30.1974207,0,,0,
60700,MELEMEZLİ  CAMİ,40.9870756,29.711512,0,,0,
10755,OMURCALI MEVKİİ,40.9341026,30.2596607,0,,0,
90548,YAĞBOLU MEVKİİ 1,41.0277,30.059992,0,,0,
90114,BALABAN 3,41.0317676,30.0461751,0,,0,
90126,ÇERÇİLİ 2,41.059608,30.010685,0,,0,
40213,ELVAN SOKAK,40.7688812,29.8445147,0,,0,
96571,İBRİKDERE ALT GEÇİT,40.73408149,30.1195674,0,,0,
96174,SAPANCA YOLU CADDESİ,40.698266,30.156464,0,,0,
96028,VEYSEL KARANİ CADDESİ 3,40.7151523,30.0109204,0,,0,
96593,KARATEPE SAPAĞI,40.68996,30.02009,0,,0,
96538,SEVİNÇ SOKAK,40.743341,30.057682,0,,0,
96599,ATAKENT 4/1,40.70142207,30.02178388,0,,0,
96600,ATAKENT 8/1,40.70342781,30.02472247,0,,0,
96602,HASAN PAŞA SAPAĞI,40.74790066,30.06379811,0,,0,
96188,YENİ DEMİRYOLU CADDESİ 1,40.749737,30.01199,0,,0,
41011,TONKA SOKAK 1,40.7168861,29.9865242,0,,0,
41998,MUAMMER AKSOY CADDESİ 3,40.8050863,29.4300273,0,,0,
90281,SARIGAZİ DURAKLI MEVKİİ,40.968867,30.256927,0,,0,
90375,BABALI ELİF SOKAK,41.189499,30.330379,0,,0,
96588,GÜVENÇ SOKAK,40.6884698,30.0325635,0,,0,
80233,BAYRAKTAR SOKAK 2,40.770163,29.904515,0,,0,
10345,KULLAR DÜĞÜN SALONU,40.724332,29.991712,0,,0,
11476,MANCARLAR 1,41.007866,30.197285,0,,0,
90707,KABAKLAR MEVKİİ,41.0266245,29.9391186,0,,0,
96592,ŞEVVAL AY SOKAK,40.6892505,30.0227874,0,,0,
98242,YUKARI HEREKE MEYDAN,40.8012137,29.6457788,0,,0,
96095,DUMLUPINAR MUHTARLIĞI 2,40.7550545,30.0234838,0,,0,
40199,BEKİR SITKI ÖZER ORTAOKULU,40.761648,29.8035509,0,,0,
98064,KUYU SOKAK,40.7744749,29.7775534,0,,0,
10154,BAŞİSKELE BELEDİYESİ 1,40.7143124,29.9333879,0,,0,
90246,SUCUALİ MERKEZ,40.996775,30.153547,0,,0,
90377,BABALI DİKİLİ CADDESİ,41.196506,30.323788,0,,0,
10512,SARI ÇÖKEK,40.6440748,30.0339055,0,,0,
90572,UZUNBEY GÜNAY SOKAK,40.7662528,30.0549682,0,,0,
90560,GEBEŞLER MUHTARLIĞI 1,41.00777,29.998053,0,,0,
98042,DORUK CADDESİ,40.7686786,29.7816633,0,,0,
90563,DELİVELİ SAPAĞI,40.97355,30.004772,0,,0,
94001,VOLTAY 1,40.70184269,29.67528741,0,,0,
94002,VOLTAY 2,40.70145231,29.67463371,0,,0,
10245,MAHMUT PAŞA CAMİ,40.7232543,29.9554807,0,,0,
70484,KOCATEPE CAMİ,40.71011,29.82811,0,,0,
96078,ARSLANBEY İLKOKULU,40.68990148,30.02977288,0,,0,
96081,TAŞOCAĞI SAPAĞI 1,40.68705015,30.03359999,0,,0,
96084,ARSLANBEY ORTA MAHALLE 1,40.68846095,30.03267379,0,,0,
96619,DARICA SOKAK 1,40.746967,30.016071,0,,0,
90053,KEFKEN İLKOKULU 1,41.1677416,30.2299066,0,,0,
96623,YEŞİLKENT SOKAK 1,40.72906908,30.01660431,0,,0,
80487,ESKİOGLU SOKAK 1,40.7895391,30.0019672,0,,0,
98047,AHMET TANER KIŞLALI CADDESİ,40.7612641,29.7979634,0,,0,
60793,3. ETAP 6471/3,40.825098,29.459531,0,,0,
60127,GEBZE SANAYİ D 100,40.8058458,29.4972327,0,,0,
41100,KÖSEKÖY ATATÜRK CADDESİ,40.7382,30.002508,0,,0,
70076,İHSANİYE MEZARLIĞI 1,40.695778,29.835583,0,,0,
96641,SEFERAĞA SOKAK,40.69459277,30.11163195,0,,0,
96643,DEĞİRMEN VADİSİ SOKAK,40.69446809,30.10790616,0,,0,
96645,ŞİRİNYOL SOKAK 2,40.69681909,30.09999976,0,,0,
96646,ŞİRİNSULHİYE ÜÇYOL 2,40.69964817,30.09692371,0,,0,
96098,İBRİKDERE ÇOCUK PARKI,40.736975,30.127046,0,,0,
96650,ŞİRİNSULHİYE MİROĞLU CADDESİ 4,40.70389608,30.10716347,0,,0,
96705,İBRİKDERE ÇOCUK PARKI 1,40.736866,30.127014,0,,0,
42105,ÇENEDERE CAMİ,40.76824,29.818295,0,,0,
80424,BEKİRDERE 2,40.7735623,29.9585622,0,,0,
70239,SABİHA GÖKÇEN CADDESİ 3,40.712013,29.792887,0,,0,
90358,KERPE GİRİŞİ,41.15427,30.197918,0,,0,
90361,KERPE MERKEZ SAHİL 1,41.157518,30.197355,0,,0,
90360,KERPE SAHİL SOKAK 1,41.149185,30.196363,0,,0,
90356,HACI ŞÜKRÜ CADDESİ,41.159351,30.224521,0,,0,
11012,SEKA DEVLET HASTANESİ TRNV.,40.7609013,29.9029969,0,,0,
90396,KOVANAĞZI 1,41.176386,30.23382,0,,0,
96719,ARSLANBEY ÜÇYOL 2,40.693474,30.049236,0,,0,
96669,SUADİYE BARBAROS İLKOKULU 1,40.69301,30.061981,0,,0,
96090,İBRİKDERE DÖRTYOL,40.737994,30.117314,0,,0,
80783,ZEYTİNBURNU 1,40.805376,30.127321,0,,0,
94037,ÇINAR CADDESİ 2,40.691814,29.601584,0,,0,
70202,GÖLCÜK İNÖNÜ CADDESİ,40.7170766,29.8304593,0,,0,
90325,ÖZBEY MERKEZ,41.094339,30.246575,0,,0,
90710,BABALI YOLU,41.184779,30.3127979,0,,0,
70383,DİCLE CADDESİ 10,40.70857,29.828785,0,,0,
42347,PERVANE SOKAK,40.725662,29.956276,0,,0,
90717,DURAKLI SAPAĞI,41.1051207,30.2643864,0,,0,
11118,DOĞANTEPE CUMHURİYET CADDESİ 7,40.702755,29.998753,0,,0,
11846,TAŞOCAKLARI YOLU 3,40.8148715,29.4676619,0,,0,
40028,HATİPLER ÇIKIŞ,40.9437767,29.8438871,0,,0,
10055,2. ADA,40.6862735,29.9217761,0,,0,
80187,TÜYSÜZLER YENİ SOKAK 1,40.7779307,29.9168725,0,,0,
11408,KARAMÜRSEL BALIKÇILAR BARINAĞI,40.690142,29.592015,0,,0,
10400,20. ADA 1,40.6981219,29.9521472,0,,0,
40000,NENE HATUN OKULU,40.773411,29.843681,0,,0,
96690,ALİ GÜNER İLKOKULU,40.73514481,30.14967352,0,,0,
70448,ÖRCÜN MERKEZ,40.703358,29.793982,0,,0,
96651,ŞİRİNSULHİYE MİROĞLU CADDESİ 1,40.705689,30.103048,0,,0,
40002,ÇINARLIDERE CAMİ 1,40.769089,29.855022,0,,0,
94053,PARK CADDESİ,40.695217,29.617685,0,,0,
80072,ULUBEY ANADOLU LİSESİ 1,40.765093,29.867285,0,,0,
90540,KUMCAĞIZ CADDESİ 1,41.15823,30.221308,0,,0,
90543,KURTYERİ ACAR SOKAK 1,41.153687,30.239614,0,,0,
96551,HASANPAŞA PARK 1,40.751326,30.064787,0,,0,
94045,KARAMÜRSEL ADLİYE,40.694421,29.617209,0,,0,
94046,KARAMÜRSEL ATATÜRK CADDESİ 1,40.695026,29.618766,0,,0,
11409,KARAMÜRSEL BALIKÇILAR BARINAĞI 1,40.690216,29.591827,0,,0,
70444,HALIDERE SAHİL 1,40.717533,29.75178,0,,0,
70542,İCADİYE YUKARI MEVKİİ 1,40.649216,29.799524,0,,0,
80200,ALTUN SOKAK 1,40.7833855,29.9196331,0,,0,
80330,CİVCİVOGLU SAPAGI 1,40.8051714,30.1308285,0,,0,
90542,NEBİOĞLU CAMİ,41.1438041,30.245083,0,,0,
80234,TARİH SOKAK 1,40.768799,29.905512,0,,0,
50116,DİLİSKELESİ MAHALLESİ CUMHURİYET CADDESİ,40.7727107,29.5251716,0,,0,
90413,BURHANLI 1,41.098675,30.11287,0,,0,
94160,İZNİK YOLU 1,40.69054838,29.60861727,0,,0,
94162,KARAMÜRSEL MERKEZ 1,40.69086645,29.61557486,0,,0,
94163,KARAMÜRSEL TERMİNAL,40.69146651,29.61796314,0,,0,
41129,ATATÜRK BULVARI 2,40.761124,29.78288,0,,0,
98340,ATATÜRK BULVARI 1,40.761014,29.783603,0,,0,
94175,İZNİK YOLU CADDESİ,40.68914102,29.59548326,0,,0,
96228,KÖSEKÖY KURS MERKEZİ 1,40.73800716,30.00079425,0,,0,
41751,1319/2. SOKAK 1,40.7885324,29.4435792,0,,0,
60504,ESKİHİSAR CADDESİ,40.77103627,29.42921524,0,,0,
60506,ESKİHİSAR MERKEZ,40.77027,29.428316,0,,0,
60508,ESKİHİSAR DEPOLAMA ALANI,40.76861655,29.42384686,0,,0,
60509,ESKİHİSAR FERİBOT YOLU,40.76827645,29.42418793,0,,0,
60510,ESKİHİSAR MERKEZ 1,40.76993753,29.42807988,0,,0,
60511,ESKİHİSAR KÖPRÜLÜ KAVŞAĞI,40.78641506,29.41562295,0,,0,
20312,133. SOKAK 1,40.8220794,29.3863473,0,,0,
20010,135. SOKAK 1,40.8250601,29.388314,0,,0,
70449,ÖRCÜN CAMİ 1,40.702576,29.794436,0,,0,
70455,ŞİRİNKÖY CAMİ 1,40.700066,29.823011,0,,0,
70020,CANSU SOKAK 1,40.694294,29.852337,0,,0,
70021,HİSAREYN MEZARLIĞI 1,40.691616,29.853466,0,,0,
70022,HİSAREYN MEZARLIĞI,40.691593,29.853315,0,,0,
70509,3098. SOKAK,40.70923,29.782354,0,,0,
70025,HİSAREYN İLKOKULU,40.686867,29.853392,0,,0,
70026,HİSAREYN DEPOLAMA ALANI,40.68639011,29.85258669,0,,0,
60433,1444. SOKAK 1,40.7869263,29.4015204,0,,0,
70030,CEYLAN SOKAK 2,40.700706,29.86301,0,,0,
70031,CEYLAN SOKAK 1,40.700787,29.862688,0,,0,
41977,1492/5. SOKAK 1,40.77706,29.423248,0,,0,
70034,TÜVTÜRK GÖLCÜK 1,40.7056,29.865005,0,,0,
70035,ÜÇEVLER ÜST GEÇİDİ,40.70572,29.868595,0,,0,
80114,CUMHURİYET KÖYLÜ PAZARI 1,40.7626965,29.8815104,0,,0,
70327,17 AĞUSTOS SPOR SALONU,40.70314712,29.81324617,0,,0,
96076,KIŞLA CADDESİ 3,40.690288,30.03081,0,,0,
94242,ŞAFAK SOKAK 2,40.6930583,29.6469084,0,,0,
81269,AĞAKÖY ÇIKIŞI,40.7823121,29.8985485,0,,0,
10074,BAHÇECİK ORTAOKULU 1,40.672737,29.911264,0,,0,
90233,SARIAHMETLER ÇUKURKÖY,40.968517,30.146166,0,,0,
10073,BAHÇECİK ORTAOKULU,40.672668,29.911418,0,,0,
81107,ŞAHİNLER ÇİFTLİK CAMİ,40.9312793,30.0099457,0,,0,
90240,SARIAHMETLER ÇOBANALİLER 1,40.964108,30.15499,0,,0,
80455,GÜNDOĞDU İLKOKULU,40.79176205,29.95688712,0,,0,
80456,GÜNDOĞDU İLKOKULU 1,40.79199457,29.95696065,0,,0,
80460,GÜNDOĞDU MEZARLIK 1,40.7962973,29.95023687,0,,0,
80765,KURTDERE MERKEZ 1,40.791607,30.184261,0,,0,
70596,YUNUS EMRE ANAOKULU 1,40.7001145,29.8003059,0,,0,
80301,ÜNİVERSİTE KONUTLARI,40.77653258,29.94650203,0,,0,
10851,NEBİHOCA SAPAĞI 3,40.8796012,30.0560934,0,,0,
80127,KEREM CAN SOKAK 1,40.760989,29.86304,0,,0,
80310,TUANA EVLERİ 1,40.78057252,29.93239793,0,,0,
80432,SOLAKLAR KÖYÜ GİRİŞ 1,40.7936928,30.0368761,0,,0,
98039,KÖRFEZ DIŞ HASTANESİ 1,40.7660788,29.7752532,0,,0,
80617,ATATÜRK ORTAOKULU,40.765312,29.947529,0,,0,
60567,FATİH SULTAN MEHMET CADDESİ,40.8350586,29.4427722,0,,0,
70513,SABİHA GÖKÇEN CADDESİ 4,40.71385,29.791456,0,,0,
90206,HÜDAVERDİLER KARAAĞAÇOĞLU,40.972703,30.077722,0,,0,
80942,ALİKAHYA CUMHURİYET MUHTARLIĞI 1,40.77535296,29.98443402,0,,0,
96232,BARBOROS HAYRETTİN PAŞA CADDESİ,40.740246,30.01183,0,,0,
96233,TERZİ GÖLÜ CADDESİ,40.740253,30.0117,0,,0,
10876,ŞABANLAR DÜZÜ,40.9672017,30.196034,0,,0,
96239,SELİMİYE CADDESİ,40.73438328,30.01394577,0,,0,
96241,SARIMEŞE SAPAĞI 3,40.73319172,30.01555805,0,,0,
11024,60. SOKAK,40.767406,29.867841,0,,0,
96244,KÖSEKÖY DÖRTYOL,40.72988083,30.01474035,0,,0,
80430,ARKAN SOKAK,40.784935,29.969824,0,,0,
70551,PANAYIR KÖYÜ 2,40.67263734,29.88429064,0,,0,
70553,ÜMMİYE YUKARI 2,40.648018,29.830904,0,,0,
90721,KÖRFEZ ELMACIK 1,40.8480707,29.6874318,0,,0,
99017,KAYNARCA,40.8788675,29.2605775,0,,0,
70556,LÜTFİYE 3,40.66152,29.766094,0,,0,
11504,SEPETCİ TOKİ KONUTLARI 6,40.8161867,29.9813785,0,,0,
10288,DİKMEN SOKAK 3,40.6970006,29.9575087,0,,0,
90165,ÇAKMAKLAR KÖYÜ 1,40.9778148,29.8902678,0,,0,
41761,ÖZGÜL SOKAK,40.775913,29.919104,0,,0,
70335,ŞİRİNKÖY İLKOKULU 1,40.69819,29.818655,0,,0,
70336,ÇAĞLAYAN PARK,40.69886076,29.82026339,0,,0,
70337,ŞİRİNKÖY SAPAĞI,40.70110572,29.82097954,0,,0,
20018,153. SOKAK,40.8248615,29.3946583,0,,0,
70340,DÜZAĞAÇ PAZAR YERİ 2,40.69994,29.819164,0,,0,
41529,AKARSU CADDESİ,40.7662322,30.0188986,0,,0,
41933,86. SOKAK,40.821224,29.4086,0,,0,
60807,1760. SOKAK 1,40.8151102,29.4308795,0,,0,
10024,HÜRRİYET CADDESİ 2,40.689539,29.909888,0,,0,
41935,67/2. SOKAK 1,40.8226173,29.4059635,0,,0,
50039,SELAHATTİN EYYUBİ CAMİ 2,40.78547,29.557362,0,,0,
41279,MUALLİMKÖY İLKOKULU 2,40.793285,29.492323,0,,0,
41280,SPOR SOKAK,40.81404718,29.58170219,0,,0,
41288,KADİFE SOKAK,40.866432,29.381077,0,,0,
81382,ŞEHİT İLYAS BAYRAKTUTAR STADI 1,40.705231,29.982209,0,,0,
60524,GEBZE İMAM HATİP LİSESİ,40.79632992,29.43731919,0,,0,
30376,ŞEHİT FATİH DUMAN PARKI 1,40.7835925,29.4008078,0,,0,
60541,MUSTAFA ÜSTÜNDAĞ ORTAOKULU,40.82894291,29.4185308,0,,0,
80770,ORTABURUN AŞAĞI 1,40.796856,30.197285,0,,0,
80708,BAĞIMSIZLIK CADDESİ 1,40.7683294,30.0157624,0,,0,
70129,BAĞLAR CADDESİ 6,40.701596,29.796211,0,,0,
80798,ESELER MERKEZ,40.792312,30.060305,0,,0,
81074,SÜLEYMANİYE YOLU 2,40.82453,30.194746,0,,0,
80782,MOLLAOĞLU SAPAĞI,40.80763082,30.12731328,0,,0,
81082,ZEYTİNBURNU 2,40.80540338,30.12721084,0,,0,
41133,MERSİNCİK PARKI,40.7710517,29.8562693,0,,0,
11121,KANAL SOKAK,40.6980437,29.9963898,0,,0,
90095,GÖRÜŞLER ÇIKIŞ,40.94223608,30.10185778,0,,0,
96026,MEHMET AKİF ERSOY CADDESİ 5,40.717927,30.010787,0,,0,
94127,BEKİR İLHAMİ FATMA NEDİME CALP İLKOKULU 1,40.686063,29.591407,0,,0,
11341,ÇAVUŞLU CAMİ,40.915093,29.821068,0,,0,
80322,KORNİŞ CADDESİ 7,40.76954433,29.93053973,0,,0,
80327,KORNİŞ CADDESİ 2,40.77185555,29.92671082,0,,0,
80329,KORNİŞ CADDESİ 1,40.77119454,29.92547471,0,,0,
11306,GEBZE OTOGAR 250 G,40.7951082,29.459532,0,,0,
10072,HÜRRİYET CADDESİ ANIT,40.670627,29.912117,0,,0,
96522,MURAT HASIRCIOĞLU İLKOKULU 1,40.729324,30.041002,0,,0,
10498,TATARAHMET KÖYÜ SAPAĞI,40.9671551,29.9326049,0,,0,
96666,TOPKAPI CADDESİ,40.690923,30.075621,0,,0,
94176,RAUF DENKTAŞ BULVARI,40.68899648,29.59846249,0,,0,
98395,YENİYALI CAMİ 1,40.766017,29.78425,0,,0,
98408,ALİHOCALAR 6,40.958285,29.782658,0,,0,
41971,EMEK TOKİ KONUTLARI,40.81605,29.412262,0,,0,
40359,BOĞAZOVA CADDESİ,40.78924,29.960392,0,,0,
41901,ANI SOKAK,40.778185,29.923246,0,,0,
94193,İZNİK YOLU CADDESİ 1,40.68216,29.591686,0,,0,
96253,CEM SULTAN SOKAK,40.72642524,30.02307862,0,,0,
60542,MUSTAFA ÜSTÜNDAĞ ORTAOKULU 1,40.8287821,29.41849934,0,,0,
60543,FIRAT CADDESİ,40.82985213,29.41873711,0,,0,
60545,MUTLUKENT POLİS MERKEZİ 1,40.83175744,29.42106484,0,,0,
70036,PLATFORM,40.70593279,29.87160891,0,,0,
70037,YAZLIK KÜBRA SOKAK,40.703403,29.872274,0,,0,
10466,KUBUZCU BÖCEKLER PARK DURAĞI,40.9991735,29.9846984,0,,0,
40313,ENGİN CADDESİ 5,40.765107,29.827885,0,,0,
70045,YAZLIK ORHANBEY CADDESİ,40.69889,29.871647,0,,0,
80266,DÜNYA BANKASI 8,40.7864317,29.9448857,0,,0,
70052,YAZLIK MAHMUTOĞLU CADDESİ,40.69576976,29.86994058,0,,0,
70053,YAZLIK SÖĞÜTLÜ ÇEŞME SOKAK,40.69451298,29.86982256,0,,0,
70054,YAZLIK ADNAN MENDERES,40.69482006,29.86987084,0,,0,
80296,DÜNYA BANKASI 9,40.7873236,29.9497952,0,,0,
80319,TOPÇULAR YOLU CAMİ 1,40.772333,29.936382,0,,0,
70349,SARAYLI YOLU,40.71674511,29.81495798,0,,0,
80464,ULU SOKAK 1,40.7854928,29.9581283,0,,0,
41290,MUALLİMKÖY YOLU 2,40.798084,29.492332,0,,0,
90679,GOSTAŞ MAHALLESİ,41.1158719,30.255235,0,,0,
90649,AKÇAOVA İLKOKULU,41.037615,29.9560051,0,,0,
41871,ŞEHİT MECİT SOKAK 1,40.7599012,30.0217771,0,,0,
90254,AŞAĞI SÜLLÜ MEVKİİ,41.04567,30.174578,0,,0,
70062,KOCA YUSUF CADDESİ,40.7051906,29.8496174,0,,0,
80385,KAHYA KADIN CADDESİ 1,40.7575512,29.9547768,0,,0,
60671,DENİZLİ KÖYÜ ÇIKIŞ 1,40.8913725,29.5355144,0,,0,
80718,MEHMET AKİF CADDESİ 2,40.7760722,30.0063492,0,,0,
80474,DEĞİRMEN SOKAK 1,40.79272783,29.97567751,0,,0,
80477,ALAN SOKAK,40.79095718,29.97457511,0,,0,
80786,ÇUBUKLU OSMANİYE  ÜÇYOL 1,40.85999674,30.05466565,0,,0,
80633,SEPETÇİLER SAPAĞI 2,40.79943999,29.98295577,0,,0,
70024,HİSAREYN ÇORUH CADDESİ,40.686684,29.85346,0,,0,
80642,SANCAK CADDESİ,40.80404354,29.96024364,0,,0,
80643,SANCAK CADDESİ 1,40.803745,29.960197,0,,0,
90403,CEZAEVİ AKTARMA 3,40.9192002,30.078812,0,,0,
81177,ŞAKİR,40.768541,29.918034,0,,0,
80955,HACI BAYRAM VELİ SOKAK,40.77606088,29.91486159,0,,0,
80076,PTT LOJMAN,40.7630506,29.8727078,0,,0,
70279,ALIŞVERİŞ MERKEZİ 1,40.7180181,29.7937111,0,,0,
50052,ŞEHİT SEBAHATTİN DÜNDAR ÇEŞMESİ 1,40.7877285,29.5335643,0,,0,
11098,İĞNEHANLAR SAPAĞI 1,40.948575,30.259466,0,,0,
81270,ARIZLI KÖY YOLU,40.7886524,29.9046599,0,,0,
80979,MANDIRA RAMPA,40.8440335,30.0417771,0,,0,
90204,SAKALLAR CAMİ,40.963192,30.078453,0,,0,
80994,MANDIRA MEZARLIK,40.8401877,30.0424105,0,,0,
90115,BALABAN 1,41.035835,30.041353,0,,0,
90116,BALABAN 5,41.036953,30.03378,0,,0,
90119,HACILAR MERKEZ,41.043266,30.0565,0,,0,
60903,ŞEHİT OĞUZHAN DEMİR CADDESİ,40.8113383,29.4163951,0,,0,
70569,TURGUT ÖZAL İLKOKULU 2,40.715202,29.800611,0,,0,
98221,HEREKE TOKİ İŞ MERKEZİ 2,40.792665,29.644802,0,,0,
80367,KOZLUCA KÖY İÇ YOLU,40.847403,30.097349,0,,0,
11149,BÖĞÜRGEN ŞAHBAZLAR 1,40.905741,30.011489,0,,0,
81000,KOZLUCA 2,40.832743,30.087146,0,,0,
80002,ŞİRİNTEPE 8,40.76533394,29.85730298,0,,0,
80004,ŞİRİNTEPE 6,40.762585,29.86015,0,,0,
80005,EMNİYETÇİLER,40.76239736,29.86188933,0,,0,
80006,ŞİRİNTEPE 5,40.76231603,29.86353525,0,,0,
40118,YEŞİLYURT KAPALI PAZAR 1,40.720749,29.95614,0,,0,
90291,SARICAALİ KEREMLER 1,40.9577657,30.1800824,0,,0,
41292,MUALLİMKÖY ORTA YOL 1,40.80016,29.491344,0,,0,
41294,MUALLİMKÖY ORTA YOL 2,40.80006263,29.49118584,0,,0,
50050,DİLOVASI MERKEZ CAMİ,40.7865584,29.5363007,0,,0,
60125,AHMET YASİN BAŞKAYA ÜST GEÇİDİ,40.8009638,29.4668098,0,,0,
60873,ELEŞLİ CAMİ,40.9518058,29.704482,0,,0,
41301,SPOR SOKAK 1,40.81409752,29.58166922,0,,0,
20031,ABDULKADİR GEYLANİ CAMİ,40.8189263,29.3935569,0,,0,
60468,625. SOKAK,40.7917101,29.4191412,0,,0,
41307,İMES BULVARI,40.830917,29.576344,0,,0,
60546,MUTLUKENT POLİS MERKEZİ,40.831673,29.421186,0,,0,
60550,SERKAN ÖZÇERİ CADDESİ,40.829113,29.420444,0,,0,
60551,MUTLUKENT BULVARI 1,40.828213,29.42092,0,,0,
60552,MUTLUKENT BULVARI,40.82833461,29.42088279,0,,0,
60554,MUTLUKENT İLKOKULU 1,40.82979446,29.42423151,0,,0,
80141,ÇAYIR SOKAK 1,40.767392,29.894862,0,,0,
98401,BELEN KÖYÜ SAPAĞI,40.8129767,29.7503588,0,,0,
60564,ZİYA GÖKALP CADDESİ 1,40.832767,29.44423,0,,0,
80543,SAPAKPINAR 1,40.810926,30.161627,0,,0,
70067,MEHTAP CADDESİ 1,40.7045,29.844507,0,,0,
80787,ORHANİYE 4,40.856194,30.06575,0,,0,
80789,ORHANİYE 5,40.85937888,30.07097483,0,,0,
80791,GÜLBAHÇE KADRİYE,40.870693,30.128098,0,,0,
98404,KALBURCU MUHTARLIĞI 1,40.8388011,29.725821,0,,0,
11420,KOCAOĞLU SAPAĞI,41.0499709,30.0282518,0,,0,
81231,KEMAL VAROL SOKAK,40.770842,29.863982,0,,0,
81089,BALÖREN 5,40.84233571,30.12404951,0,,0,
81090,BALÖREN 4,40.84379,30.121368,0,,0,
81092,KOZLUCA,40.8427997,30.09355486,0,,0,
41275,LEYLAK SOKAK 1,40.77524,29.575647,0,,0,
40284,FATİH SULTAN MUHTARLIĞI,40.774072,29.825991,0,,0,
80881,BATI TERMİNALİ PERONLAR,40.761959,29.911448,0,,0,
80336,ESNAF KEFALET,40.76183364,29.93017685,0,,0,
81104,HOCALAR MEVKİİ 1,40.943595,29.956188,0,,0,
41312,4242. SOKAK,40.70697,29.84261,0,,0,
80178,GÜLTEPE MUHTARLIĞI 1,40.769064,29.912453,0,,0,
80209,PROF BAKİ KOMSUOĞLU BULVARI 4,40.790414,29.928094,0,,0,
80346,DOSTLUK SİTESİ,40.76651092,29.90749297,0,,0,
41341,3146. SOKAK,40.70707,29.790699,0,,0,
80349,İSU GENEL MÜDÜRLÜĞÜ 1,40.76483866,29.89577313,0,,0,
81127,ŞEREF SOKAK 1,40.7778196,29.9265929,0,,0,
41593,ÇAYIROVA ŞİFA BAĞLANTISI,40.8323919,29.3689854,0,,0,
70483,KOCATEPE ORTAOKULU 1,40.709297,29.82626,0,,0,
41622,SEDİR SOKAK 1,40.852295,29.364223,0,,0,
42292,SADIK SOKAK,40.743584,30.01193,0,,0,
94027,ÇAMÇUKUR MEYDANI 1,40.676296,29.636827,0,,0,
90493,ÇALCA MUHTARLIĞI 1,41.00818,29.952747,0,,0,
90170,ÇALCA MUHTARLIĞI,41.008153,29.952679,0,,0,
90736,KOCAOĞLU ÇIKIŞ,41.039207,30.0304482,0,,0,
42351,KREDİ YURTLAR KURUMU ALİ FUAT CEBESOY ÖĞRENCİ YURDU 1,40.789954,29.978096,0,,0,
42271,HAYRETTİN GÜRSOY SPOR LİSESİ,40.737383,30.141038,0,,0,
96014,KETENCİLER PARK 1,40.76345111,30.13918193,0,,0,
70068,MEHTAP CADDESİ,40.70455217,29.84439522,0,,0,
70069,STAD YOLU,40.702374,29.8429,0,,0,
70070,STAD YOLU 1,40.70238,29.842857,0,,0,
80715,AHMET MÜFİT BEY CADDESİ 1,40.773487,30.007782,0,,0,
81211,TURAN GÜNEŞ CADDESİ BARAJ ALTI,40.800591,29.9852325,0,,0,
70368,DENİZEVLER KÖPRÜSÜ,40.716595,29.839165,0,,0,
90218,AHMETHACILAR CAMİ,40.896563,30.139573,0,,0,
70372,GÖLCÜK OTOGAR 1,40.71507399,29.83767629,0,,0,
80940,ŞEHİT RAFET KARACAN 3,40.7633006,29.955929,0,,0,
90307,KANATLAR PİRCELER MEVKİİ,41.041499,30.2329,0,,0,
10286,AHMET YESEVİ CADDESİ 6,40.70694,29.951736,0,,0,
70381,DİCLE CADDESİ 7,40.706142,29.828672,0,,0,
90330,PINARDÜZÜ MERKEZ MEVKİİ,41.1243931,30.3142649,0,,0,
90393,KÖSELER MEVKİİ,40.9453399,30.0316538,0,,0,
90236,KIRKARMUT RUŞENLER MEVKİİ,40.992256,30.136341,0,,0,
60235,ŞEHİT MEHMET KARTAL CADDESİ 2,40.80886142,29.3999488,0,,0,
60236,ŞEHİT MEHMET KARTAL CADDESİ 1,40.80896387,29.40001626,0,,0,
81015,ÇAYIRKÖY 4,40.79972,29.993023,0,,0,
90575,TERZİLER MEYVELİK MEVKİİ,40.9007637,30.1011676,0,,0,
80265,DÜNYA BANKASI 7,40.7863322,29.9446861,0,,0,
98174,HEREKE DÖRTYOL 2,40.7846532,29.6173356,0,,0,
80917,BEKİRDERE 1,40.7734661,29.9585669,0,,0,
60733,TÜBİTAK 2,40.790123,29.446856,0,,0,
90412,ÇALKÖY,41.1086612,30.1037326,0,,0,
80190,EGE SOKAK 1,40.774672,29.9113207,0,,0,
98387,HEREKE RADAR CADDESİ,40.784763,29.63365,0,,0,
80494,TOPÇU SOKAK,40.7712018,29.8865872,0,,0,
80500,ALİKAHYA CUMHURİYET MUHTARLIĞI,40.77547441,29.98449882,0,,0,
80129,ŞİRİNTEPE ÜST GEÇİT 1,40.7615205,29.8607742,0,,0,
94034,İZNİK YOLU,40.69081418,29.60871406,0,,0,
94217,KARAAHMETLİ ÇIKIŞ,40.652238,29.574133,0,,0,
81046,KOCAPINAR,40.9574111,29.9503021,0,,0,
80691,DİLEK SOKAK 1,40.7836894,29.96622,0,,0,
96094,KETENCİLER KARAAĞAÇ MEVKİİ,40.76214875,30.13126435,0,,0,
98409,ORUÇLU MEVKİİ 2,40.933452,29.800831,0,,0,
99053,239/6. SOKAK 1,40.8342158,29.3891547,0,,0,
94057,KARAMÜRSEL HASTANE YOLU,40.690559,29.594014,0,,0,
96103,UZUNTARLA ÜÇYOL 1,40.73268367,30.14486164,0,,0,
96030,RAHMİYE MUHTARLIĞI 1,40.7139874,30.0122702,0,,0,
96661,GÖKTAŞ SOKAK,40.70505,30.054363,0,,0,
11387,HAYRETTİN GÜRSOY SPOR LİSESİ 1,40.737301,30.140844,0,,0,
90539,KERPE GİRİŞİ 1,41.154266,30.198265,0,,0,
80630,ÇAYIRKÖY 2,40.801191,29.995399,0,,0,
80529,KİRAZOĞLU 1,40.758478,30.091366,0,,0,
96055,ATAKENT 9,40.70223675,30.02753162,0,,0,
96056,ATAKENT 9/1,40.70234453,30.02723769,0,,0,
96059,ACUN SOKAK,40.70173096,30.02588462,0,,0,
96062,KOLAYLI CADDESİ 1,40.69702,30.024746,0,,0,
96063,KOLAYLI CADDESİ 3,40.69653446,30.02307286,0,,0,
96064,KOLAYLI CADDESİ 5,40.69492983,30.02080891,0,,0,
96066,KOLAYLI CADDESİ 6,40.6936406,30.02044686,0,,0,
70087,BEYOĞLU CADDESİ,40.689354,29.828045,0,,0,
80075,İZMİT KURUÇEŞME AİLE SAĞLIĞI MERKEZİ 1,40.7651815,29.8722264,0,,0,
94187,KARABAŞ SOKAK,40.693012,29.647943,0,,0,
96668,OKÇAPINAR SOKAK,40.69248,30.064413,0,,0,
60761,MEHMET AKİF ERSOY İLKOKULU 1,40.7836249,29.4317513,0,,0,
70075,İHSANİYE MEZARLIĞI,40.69606666,29.83537763,0,,0,
70079,İHSANİYE MERKEZ 1,40.69105,29.83442,0,,0,
42324,SESSİZ SOKAK,40.695995,29.889927,0,,0,
60310,GEBZE YUNUS EMRE CADDESİ,40.8064842,29.4265383,0,,0,
80468,HALİDE EDİP ADİVAR CADDESİ,40.79338,29.967909,0,,0,
80503,AKASYA SOKAK,40.7779268,29.9844448,0,,0,
80506,MUALLİM NACİ,40.77712375,29.98214943,0,,0,
10057,3. ADA 1,40.6858228,29.924983,0,,0,
80809,KANUNİ SULTAN SÜLEYMAN,40.82257809,30.18318431,0,,0,
80502,AKASYA SOKAK 1,40.7780576,29.9846699,0,,0,
10302,VEZİRÇİFTLİĞİ TRAFO 2,40.7415295,29.9613927,0,,0,
11628,DEREKÖY EĞNEDİKLİ SAPAĞI 1,40.85188,29.778757,0,,0,
80815,AMBARCI 2,40.89069906,30.19519071,0,,0,
10529,ÇELEBİ SOKAK,40.805518,29.64988,0,,0,
80819,AKMEŞE YENİCE 1,40.88363771,30.24620613,0,,0,
80824,YASSIBAĞ MERKEZ,40.83766799,30.04055984,0,,0,
